[
  {
    "city": "New York City",
    "state": "New York",
    "slug": "new-york/new-york",
    "growth": -0.01985,
    "densityMi": 26415,
    "areaMi": 300.457,
    "lng": -73.9387,
    "lat": 40.6627,
    "population": 7936530,
    "pop2025": 7936530,
    "pop2024": 8097282,
    "pop2020": 8740292,
    "pop2010": 8190105,
    "type": "City",
    "rank": 1
  },
  {
    "city": "Los Angeles",
    "state": "California",
    "slug": "california/los-angeles",
    "growth": -0.00658,
    "densityMi": 8014,
    "areaMi": 470.517,
    "lng": -118.411,
    "lat": 34.0194,
    "population": 3770958,
    "pop2025": 3770958,
    "pop2024": 3795936,
    "pop2020": 3895848,
    "pop2010": 3795206,
    "type": "City",
    "rank": 2
  },
  {
    "city": "Chicago",
    "state": "Illinois",
    "slug": "illinois/chicago",
    "growth": -0.00997,
    "densityMi": 11468,
    "areaMi": 227.748,
    "lng": -87.6849,
    "lat": 41.837,
    "population": 2611867,
    "pop2025": 2611867,
    "pop2024": 2638159,
    "pop2020": 2743329,
    "pop2010": 2697480,
    "type": "City",
    "rank": 3
  },
  {
    "city": "Houston",
    "state": "Texas",
    "slug": "texas/houston",
    "growth": 0.00214,
    "densityMi": 3628,
    "areaMi": 640.606,
    "lng": -95.3888,
    "lat": 29.7857,
    "population": 2324082,
    "pop2025": 2324082,
    "pop2024": 2319119,
    "pop2020": 2299269,
    "pop2010": 2097647,
    "type": "City",
    "rank": 4
  },
  {
    "city": "Phoenix",
    "state": "Arizona",
    "slug": "arizona/phoenix",
    "growth": 0.00754,
    "densityMi": 3232,
    "areaMi": 518.331,
    "lng": -112.09,
    "lat": 33.5722,
    "population": 1675144,
    "pop2025": 1675144,
    "pop2024": 1662607,
    "pop2020": 1612459,
    "pop2010": 1448998,
    "type": "City",
    "rank": 5
  },
  {
    "city": "San Antonio",
    "state": "Texas",
    "slug": "texas/san-antonio",
    "growth": 0.01234,
    "densityMi": 3072,
    "areaMi": 498.922,
    "lng": -98.5246,
    "lat": 29.4628,
    "population": 1532653,
    "pop2025": 1532653,
    "pop2024": 1513974,
    "pop2020": 1439257,
    "pop2010": 1332966,
    "type": "City",
    "rank": 6
  },
  {
    "city": "Philadelphia",
    "state": "Pennsylvania",
    "slug": "pennsylvania/philadelphia",
    "growth": -0.0109,
    "densityMi": 11292,
    "areaMi": 134.356,
    "lng": -75.1333,
    "lat": 40.0094,
    "population": 1517114,
    "pop2025": 1517114,
    "pop2024": 1533828,
    "pop2020": 1600684,
    "pop2010": 1528303,
    "type": "City",
    "rank": 7
  },
  {
    "city": "San Diego",
    "state": "California",
    "slug": "california/san-diego",
    "growth": 0.00049,
    "densityMi": 4262,
    "areaMi": 326.087,
    "lng": -117.136,
    "lat": 32.815,
    "population": 1389672,
    "pop2025": 1389672,
    "pop2024": 1388996,
    "pop2020": 1386292,
    "pop2010": 1305632,
    "type": "City",
    "rank": 8
  },
  {
    "city": "Dallas",
    "state": "Texas",
    "slug": "texas/dallas",
    "growth": -0.00009,
    "densityMi": 3835,
    "areaMi": 339.676,
    "lng": -96.7665,
    "lat": 32.7933,
    "population": 1302638,
    "pop2025": 1302638,
    "pop2024": 1302753,
    "pop2020": 1303212,
    "pop2010": 1200360,
    "type": "City",
    "rank": 9
  },
  {
    "city": "Fort Worth",
    "state": "Texas",
    "slug": "texas/fort-worth",
    "growth": 0.01835,
    "densityMi": 2898,
    "areaMi": 350.27,
    "lng": -97.3486,
    "lat": 32.782,
    "population": 1015045,
    "pop2025": 1015045,
    "pop2024": 996756,
    "pop2020": 923602,
    "pop2010": 748419,
    "type": "City",
    "rank": 10
  },
  {
    "city": "Jacksonville",
    "state": "Florida",
    "slug": "florida/jacksonville",
    "growth": 0.01135,
    "densityMi": 1350,
    "areaMi": 747.261,
    "lng": -81.6616,
    "lat": 30.3369,
    "population": 1008485,
    "pop2025": 1008485,
    "pop2024": 997164,
    "pop2020": 951880,
    "pop2010": 823146,
    "type": "City",
    "rank": 11
  },
  {
    "city": "Austin",
    "state": "Texas",
    "slug": "texas/austin",
    "growth": 0.00476,
    "densityMi": 3031,
    "areaMi": 326.365,
    "lng": -97.7541,
    "lat": 30.2986,
    "population": 989252,
    "pop2025": 989252,
    "pop2024": 984567,
    "pop2020": 965827,
    "pop2010": 806214,
    "type": "City",
    "rank": 12
  },
  {
    "city": "San Jose",
    "state": "California",
    "slug": "california/san-jose",
    "growth": -0.01382,
    "densityMi": 5301,
    "areaMi": 177.939,
    "lng": -121.815,
    "lat": 37.296,
    "population": 943212,
    "pop2025": 943212,
    "pop2024": 956433,
    "pop2020": 1009319,
    "pop2010": 954552,
    "type": "City",
    "rank": 13
  },
  {
    "city": "Charlotte",
    "state": "North Carolina",
    "slug": "north-carolina/charlotte",
    "growth": 0.01284,
    "densityMi": 3009,
    "areaMi": 310.759,
    "lng": -80.831,
    "lat": 35.209,
    "population": 935017,
    "pop2025": 935017,
    "pop2024": 923164,
    "pop2020": 875752,
    "pop2010": 738446,
    "type": "City",
    "rank": 14
  },
  {
    "city": "Columbus",
    "state": "Ohio",
    "slug": "ohio/columbus",
    "growth": 0.00246,
    "densityMi": 4158,
    "areaMi": 220.725,
    "lng": -82.9849,
    "lat": 39.9839,
    "population": 917679,
    "pop2025": 917679,
    "pop2024": 915427,
    "pop2020": 906418,
    "pop2010": 790942,
    "type": "City",
    "rank": 15
  },
  {
    "city": "Indianapolis",
    "state": "Indiana",
    "slug": "indiana/indianapolis",
    "growth": -0.003,
    "densityMi": 2421,
    "areaMi": 361.017,
    "lng": -86.1459,
    "lat": 39.7767,
    "population": 874037,
    "pop2025": 874037,
    "pop2024": 876665,
    "pop2020": 887177,
    "pop2010": 821576,
    "type": "Township",
    "rank": 16
  },
  {
    "city": "San Francisco",
    "state": "California",
    "slug": "california/san-francisco",
    "growth": -0.02601,
    "densityMi": 16445,
    "areaMi": 46.7,
    "lng": -123.032,
    "lat": 37.7272,
    "population": 767968,
    "pop2025": 767968,
    "pop2024": 788478,
    "pop2020": 870518,
    "pop2010": 805519,
    "type": "City",
    "rank": 17
  },
  {
    "city": "Seattle",
    "state": "Washington",
    "slug": "washington/seattle",
    "growth": 0.00637,
    "densityMi": 9104,
    "areaMi": 84,
    "lng": -122.352,
    "lat": 47.6193,
    "population": 764753,
    "pop2025": 764753,
    "pop2024": 759915,
    "pop2020": 740565,
    "pop2010": 610654,
    "type": "City",
    "rank": 18
  },
  {
    "city": "Oklahoma City",
    "state": "Oklahoma",
    "slug": "oklahoma/oklahoma-city",
    "growth": 0.00925,
    "densityMi": 1180,
    "areaMi": 606.479,
    "lng": -97.5137,
    "lat": 35.4671,
    "population": 715893,
    "pop2025": 715893,
    "pop2024": 709330,
    "pop2020": 683078,
    "pop2010": 582560,
    "type": "City",
    "rank": 19
  },
  {
    "city": "Denver",
    "state": "Colorado",
    "slug": "colorado/denver",
    "growth": -0.00048,
    "densityMi": 4677,
    "areaMi": 153.074,
    "lng": -104.881,
    "lat": 39.7618,
    "population": 715891,
    "pop2025": 715891,
    "pop2024": 716234,
    "pop2020": 717606,
    "pop2010": 603012,
    "type": "City",
    "rank": 20
  },
  {
    "city": "Nashville",
    "state": "Tennessee",
    "slug": "tennessee/nashville",
    "growth": -0.00093,
    "densityMi": 1444,
    "areaMi": 475.566,
    "lng": -86.785,
    "lat": 36.1718,
    "population": 686513,
    "pop2025": 686513,
    "pop2024": 687150,
    "pop2020": 689700,
    "pop2010": 604644,
    "type": "Township",
    "rank": 21
  },
  {
    "city": "Washington",
    "state": "District of Columbia",
    "slug": "district-of-columbia/washington",
    "growth": 0.00398,
    "densityMi": 11196,
    "areaMi": 61.126,
    "lng": -77.0165,
    "lat": 38.9042,
    "population": 684394,
    "pop2025": 684394,
    "pop2024": 681683,
    "pop2020": 670839,
    "pop2010": 605282,
    "type": "City",
    "rank": 22
  },
  {
    "city": "El Paso",
    "state": "Texas",
    "slug": "texas/el-paso",
    "growth": -0.00015,
    "densityMi": 2623,
    "areaMi": 258.788,
    "lng": -106.431,
    "lat": 31.8478,
    "population": 678760,
    "pop2025": 678760,
    "pop2024": 678859,
    "pop2020": 679255,
    "pop2010": 650482,
    "type": "City",
    "rank": 23
  },
  {
    "city": "Las Vegas",
    "state": "Nevada",
    "slug": "nevada/las-vegas",
    "growth": 0.00708,
    "densityMi": 4725,
    "areaMi": 141.862,
    "lng": -115.264,
    "lat": 36.2335,
    "population": 670352,
    "pop2025": 670352,
    "pop2024": 665640,
    "pop2020": 646794,
    "pop2010": 584600,
    "type": "City",
    "rank": 24
  },
  {
    "city": "Boston",
    "state": "Massachusetts",
    "slug": "massachusetts/boston",
    "growth": -0.01115,
    "densityMi": 13227,
    "areaMi": 48.34,
    "lng": -71.0182,
    "lat": 42.3386,
    "population": 639411,
    "pop2025": 639411,
    "pop2024": 646622,
    "pop2020": 675466,
    "pop2010": 621053,
    "type": "City",
    "rank": 25
  },
  {
    "city": "Detroit",
    "state": "Michigan",
    "slug": "michigan/detroit",
    "growth": -0.00268,
    "densityMi": 4540,
    "areaMi": 138.735,
    "lng": -83.1022,
    "lat": 42.383,
    "population": 629830,
    "pop2025": 629830,
    "pop2024": 631524,
    "pop2020": 638300,
    "pop2010": 711198,
    "type": "City",
    "rank": 26
  },
  {
    "city": "Louisville",
    "state": "Kentucky",
    "slug": "kentucky/louisville",
    "growth": -0.0048,
    "densityMi": 2346,
    "areaMi": 263.065,
    "lng": -85.6474,
    "lat": 38.1654,
    "population": 617027,
    "pop2025": 617027,
    "pop2024": 620004,
    "pop2020": 631912,
    "pop2010": 596518,
    "type": "Township",
    "rank": 27
  },
  {
    "city": "Portland",
    "state": "Oregon",
    "slug": "oregon/portland",
    "growth": -0.01223,
    "densityMi": 4609,
    "areaMi": 133.488,
    "lng": -122.65,
    "lat": 45.5369,
    "population": 615267,
    "pop2025": 615267,
    "pop2024": 622882,
    "pop2020": 653344,
    "pop2010": 585476,
    "type": "City",
    "rank": 28
  },
  {
    "city": "Memphis",
    "state": "Tennessee",
    "slug": "tennessee/memphis",
    "growth": -0.00902,
    "densityMi": 2051,
    "areaMi": 296.202,
    "lng": -89.9675,
    "lat": 35.109,
    "population": 607581,
    "pop2025": 607581,
    "pop2024": 613110,
    "pop2020": 635225,
    "pop2010": 652349,
    "type": "City",
    "rank": 29
  },
  {
    "city": "Albuquerque",
    "state": "New Mexico",
    "slug": "new-mexico/albuquerque",
    "growth": -0.00275,
    "densityMi": 2975,
    "areaMi": 187.266,
    "lng": -106.647,
    "lat": 35.1048,
    "population": 557198,
    "pop2025": 557198,
    "pop2024": 558736,
    "pop2020": 564888,
    "pop2010": 546747,
    "type": "City",
    "rank": 30
  },
  {
    "city": "Baltimore",
    "state": "Maryland",
    "slug": "maryland/baltimore",
    "growth": -0.01068,
    "densityMi": 6835,
    "areaMi": 80.946,
    "lng": -76.6105,
    "lat": 39.3,
    "population": 553293,
    "pop2025": 553293,
    "pop2024": 559266,
    "pop2020": 583157,
    "pop2010": 620942,
    "type": "City",
    "rank": 31
  },
  {
    "city": "Milwaukee",
    "state": "Wisconsin",
    "slug": "wisconsin/milwaukee",
    "growth": -0.00948,
    "densityMi": 5728,
    "areaMi": 96.173,
    "lng": -87.9667,
    "lat": 43.0633,
    "population": 550837,
    "pop2025": 550837,
    "pop2024": 556111,
    "pop2020": 577207,
    "pop2010": 594883,
    "type": "City",
    "rank": 32
  },
  {
    "city": "Tucson",
    "state": "Arizona",
    "slug": "arizona/tucson",
    "growth": 0.0028,
    "densityMi": 2272,
    "areaMi": 242.187,
    "lng": -110.871,
    "lat": 32.153,
    "population": 550306,
    "pop2025": 550306,
    "pop2024": 548772,
    "pop2020": 542638,
    "pop2010": 527048,
    "type": "City",
    "rank": 33
  },
  {
    "city": "Fresno",
    "state": "California",
    "slug": "california/fresno",
    "growth": 0.00183,
    "densityMi": 4729,
    "areaMi": 115.818,
    "lng": -119.793,
    "lat": 36.7827,
    "population": 547720,
    "pop2025": 547720,
    "pop2024": 546718,
    "pop2020": 542710,
    "pop2010": 497763,
    "type": "City",
    "rank": 34
  },
  {
    "city": "Sacramento",
    "state": "California",
    "slug": "california/sacramento",
    "growth": 0.00054,
    "densityMi": 5342,
    "areaMi": 98.646,
    "lng": -121.468,
    "lat": 38.5677,
    "population": 526954,
    "pop2025": 526954,
    "pop2024": 526669,
    "pop2020": 525528,
    "pop2010": 467246,
    "type": "City",
    "rank": 35
  },
  {
    "city": "Atlanta",
    "state": "Georgia",
    "slug": "georgia/atlanta",
    "growth": 0.00708,
    "densityMi": 3831,
    "areaMi": 135.253,
    "lng": -84.4227,
    "lat": 33.7629,
    "population": 518107,
    "pop2025": 518107,
    "pop2024": 514465,
    "pop2020": 499896,
    "pop2010": 429414,
    "type": "City",
    "rank": 36
  },
  {
    "city": "Mesa",
    "state": "Arizona",
    "slug": "arizona/mesa",
    "growth": 0.00374,
    "densityMi": 3646,
    "areaMi": 141.384,
    "lng": -111.716,
    "lat": 33.4006,
    "population": 515486,
    "pop2025": 515486,
    "pop2024": 513567,
    "pop2020": 505890,
    "pop2010": 440833,
    "type": "City",
    "rank": 37
  },
  {
    "city": "Kansas City",
    "state": "Missouri",
    "slug": "missouri/kansas-city",
    "growth": 0.00162,
    "densityMi": 1628,
    "areaMi": 314.68,
    "lng": -94.5551,
    "lat": 39.1224,
    "population": 512360,
    "pop2025": 512360,
    "pop2024": 511532,
    "pop2020": 508220,
    "pop2010": 460690,
    "type": "City",
    "rank": 38
  },
  {
    "city": "Colorado Springs",
    "state": "Colorado",
    "slug": "colorado/colorado-springs",
    "growth": 0.00565,
    "densityMi": 2448,
    "areaMi": 201.868,
    "lng": -104.761,
    "lat": 38.8673,
    "population": 494219,
    "pop2025": 494219,
    "pop2024": 491441,
    "pop2020": 480331,
    "pop2010": 420726,
    "type": "City",
    "rank": 39
  },
  {
    "city": "Raleigh",
    "state": "North Carolina",
    "slug": "north-carolina/raleigh",
    "growth": 0.01157,
    "densityMi": 3303,
    "areaMi": 149.447,
    "lng": -78.641,
    "lat": 35.8319,
    "population": 493589,
    "pop2025": 493589,
    "pop2024": 487942,
    "pop2020": 465354,
    "pop2010": 406412,
    "type": "City",
    "rank": 40
  },
  {
    "city": "Omaha",
    "state": "Nebraska",
    "slug": "nebraska/omaha",
    "growth": -0.00654,
    "densityMi": 3337,
    "areaMi": 142.98,
    "lng": -96.0535,
    "lat": 41.2627,
    "population": 477053,
    "pop2025": 477053,
    "pop2024": 480194,
    "pop2020": 492758,
    "pop2010": 459681,
    "type": "City",
    "rank": 41
  },
  {
    "city": "Miami",
    "state": "Florida",
    "slug": "florida/miami",
    "growth": 0.00949,
    "densityMi": 12909,
    "areaMi": 35.996,
    "lng": -80.2086,
    "lat": 25.7752,
    "population": 464655,
    "pop2025": 464655,
    "pop2024": 460289,
    "pop2020": 442827,
    "pop2010": 400798,
    "type": "City",
    "rank": 42
  },
  {
    "city": "Virginia Beach",
    "state": "Virginia",
    "slug": "virginia/virginia-beach",
    "growth": -0.00445,
    "densityMi": 1837,
    "areaMi": 244.719,
    "lng": -76.0291,
    "lat": 36.7795,
    "population": 449625,
    "pop2025": 449625,
    "pop2024": 451637,
    "pop2020": 459684,
    "pop2010": 438864,
    "type": "City",
    "rank": 43
  },
  {
    "city": "Long Beach",
    "state": "California",
    "slug": "california/long-beach",
    "growth": -0.0121,
    "densityMi": 8658,
    "areaMi": 50.672,
    "lng": -118.168,
    "lat": 33.7808,
    "population": 438723,
    "pop2025": 438723,
    "pop2024": 444095,
    "pop2020": 465585,
    "pop2010": 462311,
    "type": "City",
    "rank": 44
  },
  {
    "city": "Oakland",
    "state": "California",
    "slug": "california/oakland",
    "growth": -0.0034,
    "densityMi": 7747,
    "areaMi": 55.963,
    "lng": -122.226,
    "lat": 37.7698,
    "population": 433544,
    "pop2025": 433544,
    "pop2024": 435024,
    "pop2020": 440943,
    "pop2010": 391350,
    "type": "City",
    "rank": 45
  },
  {
    "city": "Minneapolis",
    "state": "Minnesota",
    "slug": "minnesota/minneapolis",
    "growth": -0.00441,
    "densityMi": 7803,
    "areaMi": 54,
    "lng": -93.2683,
    "lat": 44.9633,
    "population": 421385,
    "pop2025": 421385,
    "pop2024": 423250,
    "pop2020": 430710,
    "pop2010": 383078,
    "type": "City",
    "rank": 46
  },
  {
    "city": "Bakersfield",
    "state": "California",
    "slug": "california/bakersfield",
    "growth": 0.00649,
    "densityMi": 2787,
    "areaMi": 150.273,
    "lng": -119.038,
    "lat": 35.3532,
    "population": 418781,
    "pop2025": 418781,
    "pop2024": 416081,
    "pop2020": 405280,
    "pop2010": 348760,
    "type": "City",
    "rank": 47
  },
  {
    "city": "Tampa",
    "state": "Florida",
    "slug": "florida/tampa",
    "growth": 0.0126,
    "densityMi": 3640,
    "areaMi": 113.638,
    "lng": -82.4776,
    "lat": 27.9663,
    "population": 413657,
    "pop2025": 413657,
    "pop2024": 408510,
    "pop2020": 387924,
    "pop2010": 337156,
    "type": "City",
    "rank": 48
  },
  {
    "city": "Tulsa",
    "state": "Oklahoma",
    "slug": "oklahoma/tulsa",
    "growth": -0.00142,
    "densityMi": 2077,
    "areaMi": 197.765,
    "lng": -95.9023,
    "lat": 36.1279,
    "population": 410722,
    "pop2025": 410722,
    "pop2024": 411308,
    "pop2020": 413651,
    "pop2010": 392289,
    "type": "City",
    "rank": 49
  },
  {
    "city": "Arlington",
    "state": "Texas",
    "slug": "texas/arlington",
    "growth": 0.00349,
    "densityMi": 4186,
    "areaMi": 95.842,
    "lng": -97.1247,
    "lat": 32.7007,
    "population": 401219,
    "pop2025": 401219,
    "pop2024": 399825,
    "pop2020": 394248,
    "pop2010": 365920,
    "type": "City",
    "rank": 50
  },
  {
    "city": "Aurora",
    "state": "Colorado",
    "slug": "colorado/aurora",
    "growth": 0.00694,
    "densityMi": 2457,
    "areaMi": 163.009,
    "lng": -104.72,
    "lat": 39.7036,
    "population": 400571,
    "pop2025": 400571,
    "pop2024": 397811,
    "pop2020": 386773,
    "pop2010": 327884,
    "type": "City",
    "rank": 51
  },
  {
    "city": "Wichita",
    "state": "Kansas",
    "slug": "kansas/wichita",
    "growth": -0.00161,
    "densityMi": 2423,
    "areaMi": 162.941,
    "lng": -97.3458,
    "lat": 37.6906,
    "population": 394849,
    "pop2025": 394849,
    "pop2024": 395484,
    "pop2020": 398024,
    "pop2010": 382740,
    "type": "City",
    "rank": 52
  },
  {
    "city": "Cleveland",
    "state": "Ohio",
    "slug": "ohio/cleveland",
    "growth": -0.00848,
    "densityMi": 4587,
    "areaMi": 77.735,
    "lng": -81.6794,
    "lat": 41.4785,
    "population": 356556,
    "pop2025": 356556,
    "pop2024": 359606,
    "pop2020": 371806,
    "pop2010": 396095,
    "type": "City",
    "rank": 53
  },
  {
    "city": "New Orleans",
    "state": "Louisiana",
    "slug": "louisiana/new-orleans",
    "growth": -0.0178,
    "densityMi": 2073,
    "areaMi": 169.5,
    "lng": -89.9345,
    "lat": 30.0534,
    "population": 351399,
    "pop2025": 351399,
    "pop2024": 357767,
    "pop2020": 383241,
    "pop2010": 347789,
    "type": "City",
    "rank": 54
  },
  {
    "city": "Henderson",
    "state": "Nevada",
    "slug": "nevada/henderson",
    "growth": 0.0177,
    "densityMi": 2900,
    "areaMi": 120.523,
    "lng": -115.027,
    "lat": 36.009,
    "population": 349460,
    "pop2025": 349460,
    "pop2024": 343382,
    "pop2020": 319072,
    "pop2010": 257453,
    "type": "City",
    "rank": 55
  },
  {
    "city": "Honolulu",
    "state": "Hawaii",
    "slug": "hawaii/honolulu",
    "growth": -0.00654,
    "densityMi": 5565,
    "areaMi": 60.622,
    "lng": -157.848,
    "lat": 21.3243,
    "population": 337338,
    "pop2025": 337338,
    "pop2024": 339558,
    "pop2020": 348438,
    "pop2010": 339134,
    "type": "CDP",
    "rank": 56
  },
  {
    "city": "Anaheim",
    "state": "California",
    "slug": "california/anaheim",
    "growth": -0.00605,
    "densityMi": 6690,
    "areaMi": 50.283,
    "lng": -117.759,
    "lat": 33.8555,
    "population": 336414,
    "pop2025": 336414,
    "pop2024": 338463,
    "pop2020": 346658,
    "pop2010": 337860,
    "type": "City",
    "rank": 57
  },
  {
    "city": "Orlando",
    "state": "Florida",
    "slug": "florida/orlando",
    "growth": 0.01324,
    "densityMi": 2961,
    "areaMi": 111.236,
    "lng": -81.2548,
    "lat": 28.4086,
    "population": 329347,
    "pop2025": 329347,
    "pop2024": 325044,
    "pop2020": 307834,
    "pop2010": 239219,
    "type": "City",
    "rank": 58
  },
  {
    "city": "Riverside",
    "state": "California",
    "slug": "california/riverside",
    "growth": 0.00395,
    "densityMi": 3960,
    "areaMi": 81.149,
    "lng": -117.393,
    "lat": 33.9381,
    "population": 321385,
    "pop2025": 321385,
    "pop2024": 320121,
    "pop2020": 315067,
    "pop2010": 305417,
    "type": "City",
    "rank": 59
  },
  {
    "city": "Irvine",
    "state": "California",
    "slug": "california/irvine",
    "growth": 0.00654,
    "densityMi": 4858,
    "areaMi": 65.613,
    "lng": -117.771,
    "lat": 33.6784,
    "population": 318761,
    "pop2025": 318761,
    "pop2024": 316691,
    "pop2020": 308411,
    "pop2010": 214371,
    "type": "City",
    "rank": 60
  },
  {
    "city": "Stockton",
    "state": "California",
    "slug": "california/stockton",
    "growth": -0.0015,
    "densityMi": 5049,
    "areaMi": 63.095,
    "lng": -121.309,
    "lat": 37.9772,
    "population": 318587,
    "pop2025": 318587,
    "pop2024": 319065,
    "pop2020": 320976,
    "pop2010": 292984,
    "type": "City",
    "rank": 61
  },
  {
    "city": "Lexington",
    "state": "Kentucky",
    "slug": "kentucky/lexington",
    "growth": -0.00258,
    "densityMi": 1122,
    "areaMi": 283.855,
    "lng": -84.4583,
    "lat": 38.0407,
    "population": 318505,
    "pop2025": 318505,
    "pop2024": 319329,
    "pop2020": 322627,
    "pop2010": 296868,
    "type": "Urban County",
    "rank": 62
  },
  {
    "city": "Corpus Christi",
    "state": "Texas",
    "slug": "texas/corpus-christi",
    "growth": -0.00155,
    "densityMi": 1945,
    "areaMi": 162.282,
    "lng": -97.1734,
    "lat": 27.7543,
    "population": 315615,
    "pop2025": 315615,
    "pop2024": 316105,
    "pop2020": 318065,
    "pop2010": 305254,
    "type": "City",
    "rank": 63
  },
  {
    "city": "Cincinnati",
    "state": "Ohio",
    "slug": "ohio/cincinnati",
    "growth": 0.0016,
    "densityMi": 4006,
    "areaMi": 77.914,
    "lng": -84.5058,
    "lat": 39.1402,
    "population": 312094,
    "pop2025": 312094,
    "pop2024": 311595,
    "pop2020": 309601,
    "pop2010": 297061,
    "type": "City",
    "rank": 64
  },
  {
    "city": "Santa Ana",
    "state": "California",
    "slug": "california/santa-ana",
    "growth": -0.00076,
    "densityMi": 11326,
    "areaMi": 27.376,
    "lng": -117.883,
    "lat": 33.7363,
    "population": 310069,
    "pop2025": 310069,
    "pop2024": 310304,
    "pop2020": 311244,
    "pop2010": 325069,
    "type": "City",
    "rank": 65
  },
  {
    "city": "Greensboro",
    "state": "North Carolina",
    "slug": "north-carolina/greensboro",
    "growth": 0.00652,
    "densityMi": 2288,
    "areaMi": 133.861,
    "lng": -79.8236,
    "lat": 36.0948,
    "population": 306263,
    "pop2025": 306263,
    "pop2024": 304279,
    "pop2020": 296345,
    "pop2010": 269602,
    "type": "City",
    "rank": 66
  },
  {
    "city": "Durham",
    "state": "North Carolina",
    "slug": "north-carolina/durham",
    "growth": 0.01304,
    "densityMi": 2604,
    "areaMi": 116.754,
    "lng": -78.8995,
    "lat": 35.9781,
    "population": 304014,
    "pop2025": 304014,
    "pop2024": 300100,
    "pop2020": 284444,
    "pop2010": 231586,
    "type": "City",
    "rank": 67
  },
  {
    "city": "Pittsburgh",
    "state": "Pennsylvania",
    "slug": "pennsylvania/pittsburgh",
    "growth": 0.00052,
    "densityMi": 5482,
    "areaMi": 55.378,
    "lng": -79.9757,
    "lat": 40.4399,
    "population": 303572,
    "pop2025": 303572,
    "pop2024": 303413,
    "pop2020": 302779,
    "pop2010": 305351,
    "type": "City",
    "rank": 68
  },
  {
    "city": "Newark",
    "state": "New Jersey",
    "slug": "new-jersey/newark",
    "growth": -0.00625,
    "densityMi": 12474,
    "areaMi": 24.144,
    "lng": -74.1726,
    "lat": 40.7242,
    "population": 301170,
    "pop2025": 301170,
    "pop2024": 303065,
    "pop2020": 310645,
    "pop2010": 276989,
    "type": "City",
    "rank": 69
  },
  {
    "city": "North Las Vegas",
    "state": "Nevada",
    "slug": "nevada/north-las-vegas",
    "growth": 0.02683,
    "densityMi": 2853,
    "areaMi": 105.319,
    "lng": -115.089,
    "lat": 36.2899,
    "population": 300475,
    "pop2025": 300475,
    "pop2024": 292623,
    "pop2020": 261214,
    "pop2010": 216844,
    "type": "City",
    "rank": 70
  },
  {
    "city": "St. Paul",
    "state": "Minnesota",
    "slug": "minnesota/st-paul",
    "growth": -0.0081,
    "densityMi": 5752,
    "areaMi": 51.973,
    "lng": -93.1041,
    "lat": 44.9489,
    "population": 298940,
    "pop2025": 298940,
    "pop2024": 301380,
    "pop2020": 311140,
    "pop2010": 285504,
    "type": "City",
    "rank": 71
  },
  {
    "city": "Lincoln",
    "state": "Nebraska",
    "slug": "nebraska/lincoln",
    "growth": 0.00352,
    "densityMi": 2969,
    "areaMi": 99.97,
    "lng": -96.6779,
    "lat": 40.8089,
    "population": 296839,
    "pop2025": 296839,
    "pop2024": 295798,
    "pop2020": 291633,
    "pop2010": 259464,
    "type": "City",
    "rank": 72
  },
  {
    "city": "Plano",
    "state": "Texas",
    "slug": "texas/plano",
    "growth": 0.00433,
    "densityMi": 4082,
    "areaMi": 71.699,
    "lng": -96.7479,
    "lat": 33.0508,
    "population": 292711,
    "pop2025": 292711,
    "pop2024": 291450,
    "pop2020": 286408,
    "pop2010": 261240,
    "type": "City",
    "rank": 73
  },
  {
    "city": "Jersey City",
    "state": "New Jersey",
    "slug": "new-jersey/jersey-city",
    "growth": -0.00033,
    "densityMi": 19763,
    "areaMi": 14.748,
    "lng": -74.0648,
    "lat": 40.7114,
    "population": 291462,
    "pop2025": 291462,
    "pop2024": 291559,
    "pop2020": 291949,
    "pop2010": 248324,
    "type": "City",
    "rank": 74
  },
  {
    "city": "Madison",
    "state": "Wisconsin",
    "slug": "wisconsin/madison",
    "growth": 0.00603,
    "densityMi": 3415,
    "areaMi": 83.088,
    "lng": -89.4299,
    "lat": 43.0878,
    "population": 283705,
    "pop2025": 283705,
    "pop2024": 282005,
    "pop2020": 275204,
    "pop2010": 233977,
    "type": "City",
    "rank": 75
  },
  {
    "city": "Anchorage",
    "state": "Alaska",
    "slug": "alaska/anchorage",
    "growth": -0.00565,
    "densityMi": 166,
    "areaMi": 1707,
    "lng": -149.284,
    "lat": 61.1743,
    "population": 282863,
    "pop2025": 282863,
    "pop2024": 284469,
    "pop2020": 290893,
    "pop2010": 293760,
    "type": "Township",
    "rank": 76
  },
  {
    "city": "Chandler",
    "state": "Arizona",
    "slug": "arizona/chandler",
    "growth": 0.00335,
    "densityMi": 4297,
    "areaMi": 65.639,
    "lng": -111.852,
    "lat": 33.2828,
    "population": 282048,
    "pop2025": 282048,
    "pop2024": 281107,
    "pop2020": 277345,
    "pop2010": 236459,
    "type": "City",
    "rank": 77
  },
  {
    "city": "Reno",
    "state": "Nevada",
    "slug": "nevada/reno",
    "growth": 0.0119,
    "densityMi": 2583,
    "areaMi": 108.993,
    "lng": -119.85,
    "lat": 39.5491,
    "population": 281537,
    "pop2025": 281537,
    "pop2024": 278226,
    "pop2020": 264981,
    "pop2010": 225668,
    "type": "City",
    "rank": 78
  },
  {
    "city": "Gilbert",
    "state": "Arizona",
    "slug": "arizona/gilbert",
    "growth": 0.00749,
    "densityMi": 4072,
    "areaMi": 68.663,
    "lng": -111.743,
    "lat": 33.3103,
    "population": 279569,
    "pop2025": 279569,
    "pop2024": 277490,
    "pop2020": 269173,
    "pop2010": 209471,
    "type": "Town",
    "rank": 79
  },
  {
    "city": "Fort Wayne",
    "state": "Indiana",
    "slug": "indiana/fort-wayne",
    "growth": 0.00688,
    "densityMi": 2474,
    "areaMi": 110.628,
    "lng": -85.1439,
    "lat": 41.0891,
    "population": 273736,
    "pop2025": 273736,
    "pop2024": 271865,
    "pop2020": 264380,
    "pop2010": 254134,
    "type": "City",
    "rank": 80
  },
  {
    "city": "Chula Vista",
    "state": "California",
    "slug": "california/chula-vista",
    "growth": -0.0018,
    "densityMi": 5507,
    "areaMi": 49.638,
    "lng": -117.015,
    "lat": 32.6277,
    "population": 273349,
    "pop2025": 273349,
    "pop2024": 273841,
    "pop2020": 275809,
    "pop2010": 244744,
    "type": "City",
    "rank": 81
  },
  {
    "city": "Lubbock",
    "state": "Texas",
    "slug": "texas/lubbock",
    "growth": 0.01095,
    "densityMi": 1922,
    "areaMi": 141.961,
    "lng": -101.889,
    "lat": 33.5619,
    "population": 272788,
    "pop2025": 272788,
    "pop2024": 269833,
    "pop2020": 258013,
    "pop2010": 231108,
    "type": "City",
    "rank": 82
  },
  {
    "city": "Buffalo",
    "state": "New York",
    "slug": "new-york/buffalo",
    "growth": -0.0035,
    "densityMi": 6755,
    "areaMi": 40.379,
    "lng": -78.8597,
    "lat": 42.8925,
    "population": 272762,
    "pop2025": 272762,
    "pop2024": 273720,
    "pop2020": 277551,
    "pop2010": 261280,
    "type": "City",
    "rank": 83
  },
  {
    "city": "Port St. Lucie",
    "state": "Florida",
    "slug": "florida/port-st-lucie",
    "growth": 0.04941,
    "densityMi": 2269,
    "areaMi": 119.216,
    "lng": -80.3883,
    "lat": 27.2806,
    "population": 270491,
    "pop2025": 270491,
    "pop2024": 257756,
    "pop2020": 206815,
    "pop2010": 164860,
    "type": "City",
    "rank": 84
  },
  {
    "city": "St. Louis",
    "state": "Missouri",
    "slug": "missouri/st-louis",
    "growth": -0.02267,
    "densityMi": 4363,
    "areaMi": 61.72,
    "lng": -90.2446,
    "lat": 38.6357,
    "population": 269259,
    "pop2025": 269259,
    "pop2024": 275506,
    "pop2020": 300496,
    "pop2010": 319367,
    "type": "City",
    "rank": 85
  },
  {
    "city": "St. Petersburg",
    "state": "Florida",
    "slug": "florida/st-petersburg",
    "growth": 0.00539,
    "densityMi": 4311,
    "areaMi": 61.804,
    "lng": -82.6441,
    "lat": 27.7627,
    "population": 266411,
    "pop2025": 266411,
    "pop2024": 264982,
    "pop2020": 259266,
    "pop2010": 245220,
    "type": "City",
    "rank": 86
  },
  {
    "city": "Toledo",
    "state": "Ohio",
    "slug": "ohio/toledo",
    "growth": -0.00628,
    "densityMi": 3255,
    "areaMi": 80.488,
    "lng": -83.5819,
    "lat": 41.6641,
    "population": 261989,
    "pop2025": 261989,
    "pop2024": 263646,
    "pop2020": 270276,
    "pop2010": 287077,
    "type": "City",
    "rank": 87
  },
  {
    "city": "Laredo",
    "state": "Texas",
    "slug": "texas/laredo",
    "growth": 0.00273,
    "densityMi": 2425,
    "areaMi": 106.824,
    "lng": -99.4892,
    "lat": 27.5604,
    "population": 259010,
    "pop2025": 259010,
    "pop2024": 258306,
    "pop2020": 255489,
    "pop2010": 236801,
    "type": "City",
    "rank": 88
  },
  {
    "city": "Glendale",
    "state": "Arizona",
    "slug": "arizona/glendale",
    "growth": 0.0064,
    "densityMi": 3830,
    "areaMi": 67.126,
    "lng": -112.19,
    "lat": 33.5331,
    "population": 257125,
    "pop2025": 257125,
    "pop2024": 255490,
    "pop2020": 248949,
    "pop2010": 226194,
    "type": "City",
    "rank": 89
  },
  {
    "city": "Chesapeake",
    "state": "Virginia",
    "slug": "virginia/chesapeake",
    "growth": 0.00536,
    "densityMi": 758,
    "areaMi": 338.456,
    "lng": -76.3018,
    "lat": 36.6794,
    "population": 256622,
    "pop2025": 256622,
    "pop2024": 255254,
    "pop2020": 249781,
    "pop2010": 223525,
    "type": "City",
    "rank": 90
  },
  {
    "city": "Winston-Salem",
    "state": "North Carolina",
    "slug": "north-carolina/winston-salem",
    "growth": 0.00416,
    "densityMi": 1910,
    "areaMi": 133.584,
    "lng": -80.2608,
    "lat": 36.1029,
    "population": 255089,
    "pop2025": 255089,
    "pop2024": 254032,
    "pop2020": 249804,
    "pop2010": 230024,
    "type": "City",
    "rank": 91
  },
  {
    "city": "Enterprise",
    "state": "Nevada",
    "slug": "nevada/enterprise",
    "growth": 0.03979,
    "densityMi": 3859,
    "areaMi": 65.999,
    "lng": -115.228,
    "lat": 36.0091,
    "population": 254706,
    "pop2025": 254706,
    "pop2024": 244958,
    "pop2020": 214591,
    "pop2010": 108481,
    "type": "CDP",
    "rank": 92
  },
  {
    "city": "Irving",
    "state": "Texas",
    "slug": "texas/irving",
    "growth": -0.0032,
    "densityMi": 3774,
    "areaMi": 66.979,
    "lng": -96.97,
    "lat": 32.8577,
    "population": 252750,
    "pop2025": 252750,
    "pop2024": 253561,
    "pop2020": 256807,
    "pop2010": 216858,
    "type": "City",
    "rank": 93
  },
  {
    "city": "Scottsdale",
    "state": "Arizona",
    "slug": "arizona/scottsdale",
    "growth": 0.00341,
    "densityMi": 1337,
    "areaMi": 184.003,
    "lng": -111.861,
    "lat": 33.6843,
    "population": 246068,
    "pop2025": 246068,
    "pop2024": 245231,
    "pop2020": 241883,
    "pop2010": 217627,
    "type": "City",
    "rank": 94
  },
  {
    "city": "Cape Coral",
    "state": "Florida",
    "slug": "florida/cape-coral",
    "growth": 0.04134,
    "densityMi": 2297,
    "areaMi": 106.123,
    "lng": -81.9974,
    "lat": 26.6432,
    "population": 243810,
    "pop2025": 243810,
    "pop2024": 234132,
    "pop2020": 195422,
    "pop2010": 154736,
    "type": "City",
    "rank": 95
  },
  {
    "city": "Arlington",
    "state": "Virginia",
    "slug": "virginia/arlington",
    "growth": 0.00978,
    "densityMi": 9343,
    "areaMi": 25.997,
    "lng": -77.1007,
    "lat": 38.8783,
    "population": 242900,
    "pop2025": 242900,
    "pop2024": 240548,
    "pop2020": 236434,
    "pop2010": 207627,
    "type": "CDP",
    "rank": 96
  },
  {
    "city": "Garland",
    "state": "Texas",
    "slug": "texas/garland",
    "growth": -0.0039,
    "densityMi": 4249,
    "areaMi": 56.857,
    "lng": -96.6303,
    "lat": 32.9098,
    "population": 241576,
    "pop2025": 241576,
    "pop2024": 242523,
    "pop2020": 246311,
    "pop2010": 227292,
    "type": "City",
    "rank": 97
  },
  {
    "city": "Frisco",
    "state": "Texas",
    "slug": "texas/frisco",
    "growth": 0.03192,
    "densityMi": 3497,
    "areaMi": 68.587,
    "lng": -96.8226,
    "lat": 33.1554,
    "population": 239842,
    "pop2025": 239842,
    "pop2024": 232424,
    "pop2020": 202754,
    "pop2010": 118191,
    "type": "City",
    "rank": 98
  },
  {
    "city": "Boise City",
    "state": "Idaho",
    "slug": "idaho/boise",
    "growth": -0.00087,
    "densityMi": 2779,
    "areaMi": 84.553,
    "lng": -116.232,
    "lat": 43.6002,
    "population": 235012,
    "pop2025": 235012,
    "pop2024": 235216,
    "pop2020": 236034,
    "pop2010": 209586,
    "type": "City",
    "rank": 99
  },
  {
    "city": "Huntsville",
    "state": "Alabama",
    "slug": "alabama/huntsville",
    "growth": 0.01335,
    "densityMi": 1036,
    "areaMi": 223.633,
    "lng": -86.6767,
    "lat": 34.6977,
    "population": 231668,
    "pop2025": 231668,
    "pop2024": 228616,
    "pop2020": 216407,
    "pop2010": 180926,
    "type": "City",
    "rank": 100
  },
  {
    "city": "Richmond",
    "state": "Virginia",
    "slug": "virginia/richmond",
    "growth": 0.00335,
    "densityMi": 3851,
    "areaMi": 59.925,
    "lng": -77.476,
    "lat": 37.5314,
    "population": 230787,
    "pop2025": 230787,
    "pop2024": 230017,
    "pop2020": 226936,
    "pop2010": 204375,
    "type": "City",
    "rank": 101
  },
  {
    "city": "Spring Valley",
    "state": "Nevada",
    "slug": "nevada/spring-valley",
    "growth": 0.01531,
    "densityMi": 6493,
    "areaMi": 35.505,
    "lng": -115.264,
    "lat": 36.0952,
    "population": 230544,
    "pop2025": 230544,
    "pop2024": 227067,
    "pop2020": 218697,
    "pop2010": 178395,
    "type": "CDP",
    "rank": 102
  },
  {
    "city": "Spokane",
    "state": "Washington",
    "slug": "washington/spokane",
    "growth": 0.00035,
    "densityMi": 3339,
    "areaMi": 68.76,
    "lng": -117.433,
    "lat": 47.6669,
    "population": 229608,
    "pop2025": 229608,
    "pop2024": 229527,
    "pop2020": 229205,
    "pop2010": 209537,
    "type": "City",
    "rank": 103
  },
  {
    "city": "Norfolk",
    "state": "Virginia",
    "slug": "virginia/norfolk",
    "growth": -0.01,
    "densityMi": 4249,
    "areaMi": 53.275,
    "lng": -76.2446,
    "lat": 36.923,
    "population": 226357,
    "pop2025": 226357,
    "pop2024": 228643,
    "pop2020": 237789,
    "pop2010": 243019,
    "type": "City",
    "rank": 104
  },
  {
    "city": "Tacoma",
    "state": "Washington",
    "slug": "washington/tacoma",
    "growth": 0.00474,
    "densityMi": 4526,
    "areaMi": 49.714,
    "lng": -122.46,
    "lat": 47.2522,
    "population": 225030,
    "pop2025": 225030,
    "pop2024": 223968,
    "pop2020": 219719,
    "pop2010": 198324,
    "type": "City",
    "rank": 105
  },
  {
    "city": "San Bernardino",
    "state": "California",
    "slug": "california/san-bernardino",
    "growth": 0.00243,
    "densityMi": 3620,
    "areaMi": 62.1,
    "lng": -117.295,
    "lat": 34.1411,
    "population": 224820,
    "pop2025": 224820,
    "pop2024": 224274,
    "pop2020": 222090,
    "pop2010": 210484,
    "type": "City",
    "rank": 106
  },
  {
    "city": "McKinney",
    "state": "Texas",
    "slug": "texas/mckinney",
    "growth": 0.02439,
    "densityMi": 3348,
    "areaMi": 66.963,
    "lng": -96.6642,
    "lat": 33.2011,
    "population": 224183,
    "pop2025": 224183,
    "pop2024": 218846,
    "pop2020": 197497,
    "pop2010": 132940,
    "type": "City",
    "rank": 107
  },
  {
    "city": "Fremont",
    "state": "California",
    "slug": "california/fremont",
    "growth": -0.00626,
    "densityMi": 2860,
    "areaMi": 78.103,
    "lng": -121.941,
    "lat": 37.4945,
    "population": 223393,
    "pop2025": 223393,
    "pop2024": 224800,
    "pop2020": 230430,
    "pop2010": 214514,
    "type": "City",
    "rank": 108
  },
  {
    "city": "Hialeah",
    "state": "Florida",
    "slug": "florida/hialeah",
    "growth": -0.00167,
    "densityMi": 10220,
    "areaMi": 21.581,
    "lng": -80.3029,
    "lat": 25.8699,
    "population": 220561,
    "pop2025": 220561,
    "pop2024": 220930,
    "pop2020": 222408,
    "pop2010": 225463,
    "type": "City",
    "rank": 109
  },
  {
    "city": "Fontana",
    "state": "California",
    "slug": "california/fontana",
    "growth": 0.00963,
    "densityMi": 5075,
    "areaMi": 43.278,
    "lng": -117.463,
    "lat": 34.1097,
    "population": 219657,
    "pop2025": 219657,
    "pop2024": 217561,
    "pop2020": 209177,
    "pop2010": 197216,
    "type": "City",
    "rank": 110
  },
  {
    "city": "Modesto",
    "state": "California",
    "slug": "california/modesto",
    "growth": 0.00034,
    "densityMi": 5052,
    "areaMi": 43.358,
    "lng": -121.003,
    "lat": 37.6375,
    "population": 219064,
    "pop2025": 219064,
    "pop2024": 218989,
    "pop2020": 218691,
    "pop2010": 203278,
    "type": "City",
    "rank": 111
  },
  {
    "city": "Santa Clarita",
    "state": "California",
    "slug": "california/santa-clarita",
    "growth": -0.01262,
    "densityMi": 2967,
    "areaMi": 73.614,
    "lng": -118.501,
    "lat": 34.4165,
    "population": 218442,
    "pop2025": 218442,
    "pop2024": 221235,
    "pop2020": 232406,
    "pop2010": 208802,
    "type": "City",
    "rank": 112
  },
  {
    "city": "Salt Lake City",
    "state": "Utah",
    "slug": "utah/salt-lake-city",
    "growth": 0.01401,
    "densityMi": 1944,
    "areaMi": 110.891,
    "lng": -111.931,
    "lat": 40.7769,
    "population": 215548,
    "pop2025": 215548,
    "pop2024": 212570,
    "pop2020": 200660,
    "pop2010": 186646,
    "type": "City",
    "rank": 113
  },
  {
    "city": "Baton Rouge",
    "state": "Louisiana",
    "slug": "louisiana/baton-rouge",
    "growth": -0.01026,
    "densityMi": 2474,
    "areaMi": 86.943,
    "lng": -91.1332,
    "lat": 30.4404,
    "population": 215112,
    "pop2025": 215112,
    "pop2024": 217342,
    "pop2020": 226264,
    "pop2010": 229239,
    "type": "City",
    "rank": 114
  },
  {
    "city": "Sioux Falls",
    "state": "South Dakota",
    "slug": "south-dakota/sioux-falls",
    "growth": 0.02052,
    "densityMi": 2601,
    "areaMi": 82.671,
    "lng": -96.732,
    "lat": 43.5407,
    "population": 215058,
    "pop2025": 215058,
    "pop2024": 210734,
    "pop2020": 193437,
    "pop2010": 154538,
    "type": "City",
    "rank": 115
  },
  {
    "city": "Moreno Valley",
    "state": "California",
    "slug": "california/moreno-valley",
    "growth": 0.0055,
    "densityMi": 4185,
    "areaMi": 51.31,
    "lng": -117.206,
    "lat": 33.9233,
    "population": 214741,
    "pop2025": 214741,
    "pop2024": 213566,
    "pop2020": 208868,
    "pop2010": 194168,
    "type": "City",
    "rank": 116
  },
  {
    "city": "Fayetteville",
    "state": "North Carolina",
    "slug": "north-carolina/fayetteville",
    "growth": 0.00092,
    "densityMi": 1417,
    "areaMi": 148.266,
    "lng": -78.9735,
    "lat": 35.0828,
    "population": 210135,
    "pop2025": 210135,
    "pop2024": 209942,
    "pop2020": 209170,
    "pop2010": 208354,
    "type": "City",
    "rank": 117
  },
  {
    "city": "Worcester",
    "state": "Massachusetts",
    "slug": "massachusetts/worcester",
    "growth": 0.0041,
    "densityMi": 5603,
    "areaMi": 37.36,
    "lng": -71.8078,
    "lat": 42.2695,
    "population": 209331,
    "pop2025": 209331,
    "pop2024": 208476,
    "pop2020": 205056,
    "pop2010": 181762,
    "type": "City",
    "rank": 118
  },
  {
    "city": "Des Moines",
    "state": "Iowa",
    "slug": "iowa/des-moines",
    "growth": -0.00549,
    "densityMi": 2360,
    "areaMi": 88.162,
    "lng": -93.6102,
    "lat": 41.5726,
    "population": 208084,
    "pop2025": 208084,
    "pop2024": 209232,
    "pop2020": 213826,
    "pop2010": 205042,
    "type": "City",
    "rank": 119
  },
  {
    "city": "Grand Prairie",
    "state": "Texas",
    "slug": "texas/grand-prairie",
    "growth": 0.0096,
    "densityMi": 2842,
    "areaMi": 72.512,
    "lng": -97.0208,
    "lat": 32.6861,
    "population": 206053,
    "pop2025": 206053,
    "pop2024": 204093,
    "pop2020": 196255,
    "pop2010": 175940,
    "type": "City",
    "rank": 120
  },
  {
    "city": "Yonkers",
    "state": "New York",
    "slug": "new-york/yonkers",
    "growth": -0.00538,
    "densityMi": 11409,
    "areaMi": 18.006,
    "lng": -73.8674,
    "lat": 40.9459,
    "population": 205432,
    "pop2025": 205432,
    "pop2024": 206544,
    "pop2020": 210994,
    "pop2010": 196510,
    "type": "City",
    "rank": 121
  },
  {
    "city": "Tallahassee",
    "state": "Florida",
    "slug": "florida/tallahassee",
    "growth": 0.00702,
    "densityMi": 2002,
    "areaMi": 102.428,
    "lng": -84.2523,
    "lat": 30.4535,
    "population": 205079,
    "pop2025": 205079,
    "pop2024": 203650,
    "pop2020": 197933,
    "pop2010": 181441,
    "type": "City",
    "rank": 122
  },
  {
    "city": "Rochester",
    "state": "New York",
    "slug": "new-york/rochester",
    "growth": -0.0058,
    "densityMi": 5729,
    "areaMi": 35.761,
    "lng": -77.6169,
    "lat": 43.1699,
    "population": 204882,
    "pop2025": 204882,
    "pop2024": 206078,
    "pop2020": 210862,
    "pop2010": 210190,
    "type": "City",
    "rank": 123
  },
  {
    "city": "Little Rock",
    "state": "Arkansas",
    "slug": "arkansas/little-rock",
    "growth": 0.00197,
    "densityMi": 1701,
    "areaMi": 120.281,
    "lng": -92.3586,
    "lat": 34.7254,
    "population": 204647,
    "pop2025": 204647,
    "pop2024": 204244,
    "pop2020": 202634,
    "pop2010": 193983,
    "type": "City",
    "rank": 124
  },
  {
    "city": "Amarillo",
    "state": "Texas",
    "slug": "texas/amarillo",
    "growth": 0.00309,
    "densityMi": 1966,
    "areaMi": 103.615,
    "lng": -101.833,
    "lat": 35.1981,
    "population": 203662,
    "pop2025": 203662,
    "pop2024": 203035,
    "pop2020": 200526,
    "pop2010": 191260,
    "type": "City",
    "rank": 125
  },
  {
    "city": "Peoria",
    "state": "Arizona",
    "slug": "arizona/peoria",
    "growth": 0.0112,
    "densityMi": 1150,
    "areaMi": 176.697,
    "lng": -112.308,
    "lat": 33.7862,
    "population": 203252,
    "pop2025": 203252,
    "pop2024": 201001,
    "pop2020": 191997,
    "pop2010": 154856,
    "type": "City",
    "rank": 126
  },
  {
    "city": "Knoxville",
    "state": "Tennessee",
    "slug": "tennessee/knoxville",
    "growth": 0.01117,
    "densityMi": 2052,
    "areaMi": 98.732,
    "lng": -83.9493,
    "lat": 35.9707,
    "population": 202639,
    "pop2025": 202639,
    "pop2024": 200400,
    "pop2020": 191446,
    "pop2010": 178269,
    "type": "City",
    "rank": 127
  },
  {
    "city": "Sunrise Manor",
    "state": "Nevada",
    "slug": "nevada/sunrise-manor",
    "growth": 0.00373,
    "densityMi": 5949,
    "areaMi": 33.713,
    "lng": -115.049,
    "lat": 36.1783,
    "population": 200563,
    "pop2025": 200563,
    "pop2024": 199817,
    "pop2020": 198187,
    "pop2010": 189372,
    "type": "CDP",
    "rank": 128
  },
  {
    "city": "Augusta",
    "state": "Georgia",
    "slug": "georgia/augusta",
    "growth": -0.00186,
    "densityMi": 662,
    "areaMi": 302.282,
    "lng": -82.0734,
    "lat": 33.3655,
    "population": 200140,
    "pop2025": 200140,
    "pop2024": 200512,
    "pop2020": 201999,
    "pop2010": 196388,
    "type": "Township",
    "rank": 129
  },
  {
    "city": "Vancouver",
    "state": "Washington",
    "slug": "washington/vancouver",
    "growth": 0.00868,
    "densityMi": 4100,
    "areaMi": 48.748,
    "lng": -122.597,
    "lat": 45.6372,
    "population": 199884,
    "pop2025": 199884,
    "pop2024": 198163,
    "pop2020": 191278,
    "pop2010": 167614,
    "type": "City",
    "rank": 130
  },
  {
    "city": "Columbus",
    "state": "Georgia",
    "slug": "georgia/columbus",
    "growth": -0.00854,
    "densityMi": 917,
    "areaMi": 216.5,
    "lng": -84.8749,
    "lat": 32.5102,
    "population": 198457,
    "pop2025": 198457,
    "pop2024": 200167,
    "pop2020": 207006,
    "pop2010": 191122,
    "type": "City",
    "rank": 131
  },
  {
    "city": "Overland Park",
    "state": "Kansas",
    "slug": "kansas/overland-park",
    "growth": -0.00109,
    "densityMi": 2615,
    "areaMi": 75.218,
    "lng": -94.6906,
    "lat": 38.889,
    "population": 196659,
    "pop2025": 196659,
    "pop2024": 196874,
    "pop2020": 197734,
    "pop2010": 174049,
    "type": "City",
    "rank": 132
  },
  {
    "city": "Oxnard",
    "state": "California",
    "slug": "california/oxnard",
    "growth": -0.00578,
    "densityMi": 7391,
    "areaMi": 26.545,
    "lng": -119.208,
    "lat": 34.1994,
    "population": 196206,
    "pop2025": 196206,
    "pop2024": 197347,
    "pop2020": 201911,
    "pop2010": 198541,
    "type": "City",
    "rank": 133
  },
  {
    "city": "Grand Rapids",
    "state": "Michigan",
    "slug": "michigan/grand-rapids",
    "growth": -0.00357,
    "densityMi": 4360,
    "areaMi": 44.776,
    "lng": -85.6556,
    "lat": 42.9612,
    "population": 195208,
    "pop2025": 195208,
    "pop2024": 195908,
    "pop2020": 198707,
    "pop2010": 187975,
    "type": "City",
    "rank": 134
  },
  {
    "city": "Birmingham",
    "state": "Alabama",
    "slug": "alabama/birmingham",
    "growth": -0.00637,
    "densityMi": 1320,
    "areaMi": 147.07,
    "lng": -86.797,
    "lat": 33.5272,
    "population": 194156,
    "pop2025": 194156,
    "pop2024": 195400,
    "pop2020": 200375,
    "pop2010": 211763,
    "type": "City",
    "rank": 135
  },
  {
    "city": "Tempe",
    "state": "Arizona",
    "slug": "arizona/tempe",
    "growth": 0.00785,
    "densityMi": 4823,
    "areaMi": 39.981,
    "lng": -111.932,
    "lat": 33.3884,
    "population": 192838,
    "pop2025": 192838,
    "pop2024": 191336,
    "pop2020": 185328,
    "pop2010": 162317,
    "type": "City",
    "rank": 136
  },
  {
    "city": "Brownsville",
    "state": "Texas",
    "slug": "texas/brownsville",
    "growth": 0.0055,
    "densityMi": 1459,
    "areaMi": 131.796,
    "lng": -97.4509,
    "lat": 25.9957,
    "population": 192260,
    "pop2025": 192260,
    "pop2024": 191209,
    "pop2020": 187004,
    "pop2010": 175073,
    "type": "City",
    "rank": 137
  },
  {
    "city": "Montgomery",
    "state": "Alabama",
    "slug": "alabama/montgomery",
    "growth": -0.00818,
    "densityMi": 1202,
    "areaMi": 159.857,
    "lng": -86.2673,
    "lat": 32.3485,
    "population": 192117,
    "pop2025": 192117,
    "pop2024": 193702,
    "pop2020": 200041,
    "pop2010": 205583,
    "type": "City",
    "rank": 138
  },
  {
    "city": "Providence",
    "state": "Rhode Island",
    "slug": "rhode-island/providence",
    "growth": 0.00008,
    "densityMi": 10367,
    "areaMi": 18.406,
    "lng": -71.4188,
    "lat": 41.8231,
    "population": 190823,
    "pop2025": 190823,
    "pop2024": 190807,
    "pop2020": 190745,
    "pop2010": 177996,
    "type": "City",
    "rank": 139
  },
  {
    "city": "Chattanooga",
    "state": "Tennessee",
    "slug": "tennessee/chattanooga",
    "growth": 0.00964,
    "densityMi": 1339,
    "areaMi": 142.352,
    "lng": -85.2484,
    "lat": 35.066,
    "population": 190671,
    "pop2025": 190671,
    "pop2024": 188850,
    "pop2020": 181568,
    "pop2010": 170582,
    "type": "City",
    "rank": 140
  },
  {
    "city": "Clarksville",
    "state": "Tennessee",
    "slug": "tennessee/clarksville",
    "growth": 0.02378,
    "densityMi": 1900,
    "areaMi": 99.746,
    "lng": -87.3452,
    "lat": 36.5664,
    "population": 189520,
    "pop2025": 189520,
    "pop2024": 185118,
    "pop2020": 167509,
    "pop2010": 133483,
    "type": "City",
    "rank": 141
  },
  {
    "city": "Huntington Beach",
    "state": "California",
    "slug": "california/huntington-beach",
    "growth": -0.01101,
    "densityMi": 6966,
    "areaMi": 26.982,
    "lng": -118.004,
    "lat": 33.698,
    "population": 187945,
    "pop2025": 187945,
    "pop2024": 190037,
    "pop2020": 198405,
    "pop2010": 191080,
    "type": "City",
    "rank": 142
  },
  {
    "city": "Akron",
    "state": "Ohio",
    "slug": "ohio/akron",
    "growth": -0.00256,
    "densityMi": 3031,
    "areaMi": 61.933,
    "lng": -81.5214,
    "lat": 41.0805,
    "population": 187737,
    "pop2025": 187737,
    "pop2024": 188219,
    "pop2020": 190146,
    "pop2010": 198949,
    "type": "City",
    "rank": 143
  },
  {
    "city": "Ontario",
    "state": "California",
    "slug": "california/ontario",
    "growth": 0.01217,
    "densityMi": 3740,
    "areaMi": 49.984,
    "lng": -117.604,
    "lat": 34.0376,
    "population": 186953,
    "pop2025": 186953,
    "pop2024": 184705,
    "pop2020": 175712,
    "pop2010": 164380,
    "type": "City",
    "rank": 144
  },
  {
    "city": "Fort Lauderdale",
    "state": "Florida",
    "slug": "florida/fort-lauderdale",
    "growth": 0.00246,
    "densityMi": 5354,
    "areaMi": 34.582,
    "lng": -80.1467,
    "lat": 26.1412,
    "population": 185163,
    "pop2025": 185163,
    "pop2024": 184709,
    "pop2020": 182892,
    "pop2010": 166374,
    "type": "City",
    "rank": 145
  },
  {
    "city": "Cary",
    "state": "North Carolina",
    "slug": "north-carolina/cary",
    "growth": 0.0096,
    "densityMi": 3052,
    "areaMi": 60.128,
    "lng": -78.8234,
    "lat": 35.7813,
    "population": 183498,
    "pop2025": 183498,
    "pop2024": 181754,
    "pop2020": 174778,
    "pop2010": 137116,
    "type": "Town",
    "rank": 146
  },
  {
    "city": "Paradise",
    "state": "Nevada",
    "slug": "nevada/paradise",
    "growth": -0.01513,
    "densityMi": 4277,
    "areaMi": 42.404,
    "lng": -115.136,
    "lat": 36.0871,
    "population": 181375,
    "pop2025": 181375,
    "pop2024": 184161,
    "pop2020": 193150,
    "pop2010": 223167,
    "type": "CDP",
    "rank": 147
  },
  {
    "city": "Newport News",
    "state": "Virginia",
    "slug": "virginia/newport-news",
    "growth": -0.00536,
    "densityMi": 2626,
    "areaMi": 68.996,
    "lng": -76.522,
    "lat": 37.0761,
    "population": 181165,
    "pop2025": 181165,
    "pop2024": 182141,
    "pop2020": 186047,
    "pop2010": 180905,
    "type": "City",
    "rank": 148
  },
  {
    "city": "Glendale",
    "state": "California",
    "slug": "california/glendale",
    "growth": -0.01608,
    "densityMi": 5943,
    "areaMi": 30.479,
    "lng": -118.246,
    "lat": 34.1814,
    "population": 181127,
    "pop2025": 181127,
    "pop2024": 184088,
    "pop2020": 195934,
    "pop2010": 191729,
    "type": "City",
    "rank": 149
  },
  {
    "city": "Mobile",
    "state": "Alabama",
    "slug": "alabama/mobile",
    "growth": -0.0074,
    "densityMi": 1290,
    "areaMi": 139.482,
    "lng": -88.1002,
    "lat": 30.6684,
    "population": 179911,
    "pop2025": 179911,
    "pop2024": 181253,
    "pop2020": 186621,
    "pop2010": 194590,
    "type": "City",
    "rank": 150
  },
  {
    "city": "Elk Grove",
    "state": "California",
    "slug": "california/elk-grove",
    "growth": 0.00349,
    "densityMi": 4218,
    "areaMi": 42.601,
    "lng": -121.385,
    "lat": 38.4146,
    "population": 179694,
    "pop2025": 179694,
    "pop2024": 179069,
    "pop2020": 176569,
    "pop2010": 153417,
    "type": "City",
    "rank": 151
  },
  {
    "city": "Salem",
    "state": "Oregon",
    "slug": "oregon/salem",
    "growth": 0.00279,
    "densityMi": 3646,
    "areaMi": 48.931,
    "lng": -123.023,
    "lat": 44.9239,
    "population": 178425,
    "pop2025": 178425,
    "pop2024": 177928,
    "pop2020": 175942,
    "pop2010": 155223,
    "type": "City",
    "rank": 152
  },
  {
    "city": "Eugene",
    "state": "Oregon",
    "slug": "oregon/eugene",
    "growth": 0.00088,
    "densityMi": 4009,
    "areaMi": 44.449,
    "lng": -123.119,
    "lat": 44.0568,
    "population": 178213,
    "pop2025": 178213,
    "pop2024": 178056,
    "pop2020": 177428,
    "pop2010": 156516,
    "type": "City",
    "rank": 153
  },
  {
    "city": "Aurora",
    "state": "Illinois",
    "slug": "illinois/aurora",
    "growth": -0.005,
    "densityMi": 3902,
    "areaMi": 45.051,
    "lng": -88.2901,
    "lat": 41.7635,
    "population": 175795,
    "pop2025": 175795,
    "pop2024": 176679,
    "pop2020": 180215,
    "pop2010": 198197,
    "type": "City",
    "rank": 154
  },
  {
    "city": "Santa Rosa",
    "state": "California",
    "slug": "california/santa-rosa",
    "growth": -0.00403,
    "densityMi": 4101,
    "areaMi": 42.536,
    "lng": -122.706,
    "lat": 38.4458,
    "population": 174435,
    "pop2025": 174435,
    "pop2024": 175140,
    "pop2020": 177959,
    "pop2010": 175221,
    "type": "City",
    "rank": 155
  },
  {
    "city": "Rancho Cucamonga",
    "state": "California",
    "slug": "california/rancho-cucamonga",
    "growth": -0.00053,
    "densityMi": 3746,
    "areaMi": 46.51,
    "lng": -117.566,
    "lat": 34.1303,
    "population": 174219,
    "pop2025": 174219,
    "pop2024": 174312,
    "pop2020": 174683,
    "pop2010": 166361,
    "type": "City",
    "rank": 156
  },
  {
    "city": "Murfreesboro",
    "state": "Tennessee",
    "slug": "tennessee/murfreesboro",
    "growth": 0.02298,
    "densityMi": 2695,
    "areaMi": 64.277,
    "lng": -86.4212,
    "lat": 35.8539,
    "population": 173212,
    "pop2025": 173212,
    "pop2024": 169321,
    "pop2020": 153757,
    "pop2010": 109558,
    "type": "City",
    "rank": 157
  },
  {
    "city": "Shreveport",
    "state": "Louisiana",
    "slug": "louisiana/shreveport",
    "growth": -0.01693,
    "densityMi": 1591,
    "areaMi": 108.145,
    "lng": -93.7922,
    "lat": 32.4669,
    "population": 172033,
    "pop2025": 172033,
    "pop2024": 174996,
    "pop2020": 186848,
    "pop2010": 201409,
    "type": "City",
    "rank": 158
  },
  {
    "city": "Pembroke Pines",
    "state": "Florida",
    "slug": "florida/pembroke-pines",
    "growth": 0.00009,
    "densityMi": 5237,
    "areaMi": 32.681,
    "lng": -80.3402,
    "lat": 26.0147,
    "population": 171149,
    "pop2025": 171149,
    "pop2024": 171134,
    "pop2020": 171073,
    "pop2010": 155267,
    "type": "City",
    "rank": 159
  },
  {
    "city": "Springfield",
    "state": "Missouri",
    "slug": "missouri/springfield",
    "growth": 0.00198,
    "densityMi": 2053,
    "areaMi": 83.206,
    "lng": -93.2926,
    "lat": 37.1942,
    "population": 170862,
    "pop2025": 170862,
    "pop2024": 170525,
    "pop2020": 169177,
    "pop2010": 159374,
    "type": "City",
    "rank": 160
  },
  {
    "city": "Fort Collins",
    "state": "Colorado",
    "slug": "colorado/fort-collins",
    "growth": 0.00077,
    "densityMi": 2981,
    "areaMi": 57.234,
    "lng": -105.065,
    "lat": 40.5482,
    "population": 170638,
    "pop2025": 170638,
    "pop2024": 170507,
    "pop2020": 169982,
    "pop2010": 145123,
    "type": "City",
    "rank": 161
  },
  {
    "city": "Denton",
    "state": "Texas",
    "slug": "texas/denton",
    "growth": 0.03502,
    "densityMi": 1752,
    "areaMi": 96.922,
    "lng": -97.1413,
    "lat": 33.2174,
    "population": 169843,
    "pop2025": 169843,
    "pop2024": 164096,
    "pop2020": 141107,
    "pop2010": 117016,
    "type": "City",
    "rank": 162
  },
  {
    "city": "Surprise",
    "state": "Arizona",
    "slug": "arizona/surprise",
    "growth": 0.0284,
    "densityMi": 1516,
    "areaMi": 110.505,
    "lng": -112.453,
    "lat": 33.6708,
    "population": 167537,
    "pop2025": 167537,
    "pop2024": 162911,
    "pop2020": 144407,
    "pop2010": 117604,
    "type": "City",
    "rank": 163
  },
  {
    "city": "Oceanside",
    "state": "California",
    "slug": "california/oceanside",
    "growth": -0.00779,
    "densityMi": 4056,
    "areaMi": 41.268,
    "lng": -117.306,
    "lat": 33.2246,
    "population": 167390,
    "pop2025": 167390,
    "pop2024": 168705,
    "pop2020": 173965,
    "pop2010": 167944,
    "type": "City",
    "rank": 164
  },
  {
    "city": "Roseville",
    "state": "California",
    "slug": "california/roseville",
    "growth": 0.02176,
    "densityMi": 3770,
    "areaMi": 44.087,
    "lng": -121.32,
    "lat": 38.7703,
    "population": 166214,
    "pop2025": 166214,
    "pop2024": 162674,
    "pop2020": 148516,
    "pop2010": 119960,
    "type": "City",
    "rank": 165
  },
  {
    "city": "Garden Grove",
    "state": "California",
    "slug": "california/garden-grove",
    "growth": -0.00724,
    "densityMi": 9236,
    "areaMi": 17.953,
    "lng": -117.96,
    "lat": 33.7788,
    "population": 165814,
    "pop2025": 165814,
    "pop2024": 167024,
    "pop2020": 171863,
    "pop2010": 171073,
    "type": "City",
    "rank": 166
  },
  {
    "city": "Killeen",
    "state": "Texas",
    "slug": "texas/killeen",
    "growth": 0.01218,
    "densityMi": 2994,
    "areaMi": 54.628,
    "lng": -97.7319,
    "lat": 31.0777,
    "population": 163581,
    "pop2025": 163581,
    "pop2024": 161612,
    "pop2020": 153735,
    "pop2010": 129020,
    "type": "City",
    "rank": 167
  },
  {
    "city": "Corona",
    "state": "California",
    "slug": "california/corona",
    "growth": 0.00573,
    "densityMi": 4063,
    "areaMi": 39.892,
    "lng": -117.565,
    "lat": 33.862,
    "population": 162084,
    "pop2025": 162084,
    "pop2024": 161161,
    "pop2020": 157468,
    "pop2010": 152883,
    "type": "City",
    "rank": 168
  },
  {
    "city": "Lancaster",
    "state": "California",
    "slug": "california/lancaster",
    "growth": -0.01394,
    "densityMi": 1715,
    "areaMi": 94.282,
    "lng": -118.175,
    "lat": 34.6936,
    "population": 161664,
    "pop2025": 161664,
    "pop2024": 163950,
    "pop2020": 173094,
    "pop2010": 156897,
    "type": "City",
    "rank": 169
  },
  {
    "city": "Charleston",
    "state": "South Carolina",
    "slug": "south-carolina/charleston",
    "growth": 0.00956,
    "densityMi": 1376,
    "areaMi": 115.053,
    "lng": -79.9729,
    "lat": 32.828,
    "population": 158367,
    "pop2025": 158367,
    "pop2024": 156868,
    "pop2020": 150872,
    "pop2010": 120760,
    "type": "City",
    "rank": 170
  },
  {
    "city": "Salinas",
    "state": "California",
    "slug": "california/salinas",
    "growth": -0.00819,
    "densityMi": 6673,
    "areaMi": 23.515,
    "lng": -121.634,
    "lat": 36.6902,
    "population": 156916,
    "pop2025": 156916,
    "pop2024": 158211,
    "pop2020": 163391,
    "pop2010": 150798,
    "type": "City",
    "rank": 171
  },
  {
    "city": "Palmdale",
    "state": "California",
    "slug": "california/palmdale",
    "growth": -0.01571,
    "densityMi": 1475,
    "areaMi": 106.064,
    "lng": -118.105,
    "lat": 34.591,
    "population": 156410,
    "pop2025": 156410,
    "pop2024": 158907,
    "pop2020": 168895,
    "pop2010": 152761,
    "type": "City",
    "rank": 172
  },
  {
    "city": "Macon-Bibb County",
    "state": "Georgia",
    "slug": "georgia/macon-bibb-county",
    "growth": -0.00111,
    "densityMi": 626,
    "areaMi": 249.383,
    "lng": -83.6942,
    "lat": 32.8088,
    "population": 156163,
    "pop2025": 156163,
    "pop2024": 156337,
    "pop2020": 157035,
    "pop2010": 155878,
    "type": "Township",
    "rank": 173
  },
  {
    "city": "Lakewood",
    "state": "Colorado",
    "slug": "colorado/lakewood",
    "growth": -0.00061,
    "densityMi": 3584,
    "areaMi": 43.458,
    "lng": -105.118,
    "lat": 39.6989,
    "population": 155770,
    "pop2025": 155770,
    "pop2024": 155865,
    "pop2020": 156247,
    "pop2010": 142769,
    "type": "City",
    "rank": 174
  },
  {
    "city": "Hollywood",
    "state": "Florida",
    "slug": "florida/hollywood",
    "growth": 0.00228,
    "densityMi": 5672,
    "areaMi": 27.251,
    "lng": -80.1646,
    "lat": 26.031,
    "population": 154563,
    "pop2025": 154563,
    "pop2024": 154211,
    "pop2020": 152802,
    "pop2010": 141000,
    "type": "City",
    "rank": 175
  },
  {
    "city": "Paterson",
    "state": "New Jersey",
    "slug": "new-jersey/paterson",
    "growth": -0.00615,
    "densityMi": 18369,
    "areaMi": 8.413,
    "lng": -74.1628,
    "lat": 40.9148,
    "population": 154538,
    "pop2025": 154538,
    "pop2024": 155495,
    "pop2020": 159323,
    "pop2010": 146392,
    "type": "City",
    "rank": 176
  },
  {
    "city": "Alexandria",
    "state": "Virginia",
    "slug": "virginia/alexandria",
    "growth": -0.00847,
    "densityMi": 10219,
    "areaMi": 14.935,
    "lng": -77.0837,
    "lat": 38.8193,
    "population": 152624,
    "pop2025": 152624,
    "pop2024": 153927,
    "pop2020": 159139,
    "pop2010": 140737,
    "type": "City",
    "rank": 177
  },
  {
    "city": "Springfield",
    "state": "Massachusetts",
    "slug": "massachusetts/springfield",
    "growth": -0.0035,
    "densityMi": 4788,
    "areaMi": 31.87,
    "lng": -72.54,
    "lat": 42.1155,
    "population": 152600,
    "pop2025": 152600,
    "pop2024": 153136,
    "pop2020": 155280,
    "pop2010": 153570,
    "type": "City",
    "rank": 178
  },
  {
    "city": "Bellevue",
    "state": "Washington",
    "slug": "washington/bellevue",
    "growth": -0.00046,
    "densityMi": 4525,
    "areaMi": 33.468,
    "lng": -122.156,
    "lat": 47.5978,
    "population": 151436,
    "pop2025": 151436,
    "pop2024": 151505,
    "pop2020": 151780,
    "pop2010": 128360,
    "type": "City",
    "rank": 179
  },
  {
    "city": "Olathe",
    "state": "Kansas",
    "slug": "kansas/olathe",
    "growth": 0.0131,
    "densityMi": 2424,
    "areaMi": 62.453,
    "lng": -94.8201,
    "lat": 38.882,
    "population": 151377,
    "pop2025": 151377,
    "pop2024": 149419,
    "pop2020": 141586,
    "pop2010": 126253,
    "type": "City",
    "rank": 180
  },
  {
    "city": "Hayward",
    "state": "California",
    "slug": "california/hayward",
    "growth": -0.01519,
    "densityMi": 3296,
    "areaMi": 45.818,
    "lng": -122.104,
    "lat": 37.6268,
    "population": 151014,
    "pop2025": 151014,
    "pop2024": 153344,
    "pop2020": 162666,
    "pop2010": 144662,
    "type": "City",
    "rank": 181
  },
  {
    "city": "Naperville",
    "state": "Illinois",
    "slug": "illinois/naperville",
    "growth": 0.00183,
    "densityMi": 3851,
    "areaMi": 39.157,
    "lng": -88.162,
    "lat": 41.7492,
    "population": 150795,
    "pop2025": 150795,
    "pop2024": 150520,
    "pop2020": 149419,
    "pop2010": 142408,
    "type": "City",
    "rank": 182
  },
  {
    "city": "Kansas City",
    "state": "Kansas",
    "slug": "kansas/kansas-city",
    "growth": -0.00739,
    "densityMi": 1208,
    "areaMi": 124.737,
    "lng": -94.7418,
    "lat": 39.1225,
    "population": 150689,
    "pop2025": 150689,
    "pop2024": 151811,
    "pop2020": 156298,
    "pop2010": 145881,
    "type": "City",
    "rank": 183
  },
  {
    "city": "Joliet",
    "state": "Illinois",
    "slug": "illinois/joliet",
    "growth": 0.00052,
    "densityMi": 2278,
    "areaMi": 66.123,
    "lng": -88.1488,
    "lat": 41.5177,
    "population": 150647,
    "pop2025": 150647,
    "pop2024": 150568,
    "pop2020": 150251,
    "pop2010": 147521,
    "type": "City",
    "rank": 184
  },
  {
    "city": "Sunnyvale",
    "state": "California",
    "slug": "california/sunnyvale",
    "growth": -0.00725,
    "densityMi": 6790,
    "areaMi": 22.06,
    "lng": -122.026,
    "lat": 37.3858,
    "population": 149778,
    "pop2025": 149778,
    "pop2024": 150872,
    "pop2020": 155250,
    "pop2010": 140786,
    "type": "City",
    "rank": 185
  },
  {
    "city": "McAllen",
    "state": "Texas",
    "slug": "texas/mcallen",
    "growth": 0.00943,
    "densityMi": 2397,
    "areaMi": 62.333,
    "lng": -98.2461,
    "lat": 26.225,
    "population": 149385,
    "pop2025": 149385,
    "pop2024": 147989,
    "pop2020": 142404,
    "pop2010": 132104,
    "type": "City",
    "rank": 186
  },
  {
    "city": "Bridgeport",
    "state": "Connecticut",
    "slug": "connecticut/bridgeport",
    "growth": 0.0007,
    "densityMi": 9228,
    "areaMi": 16.064,
    "lng": -73.1958,
    "lat": 41.1874,
    "population": 148235,
    "pop2025": 148235,
    "pop2024": 148131,
    "pop2020": 147717,
    "pop2010": 144865,
    "type": "City",
    "rank": 187
  },
  {
    "city": "Gainesville",
    "state": "Florida",
    "slug": "florida/gainesville",
    "growth": 0.00809,
    "densityMi": 2316,
    "areaMi": 63.986,
    "lng": -82.3468,
    "lat": 29.6795,
    "population": 148190,
    "pop2025": 148190,
    "pop2024": 147001,
    "pop2020": 142245,
    "pop2010": 124675,
    "type": "City",
    "rank": 188
  },
  {
    "city": "Savannah",
    "state": "Georgia",
    "slug": "georgia/savannah",
    "growth": 0.00066,
    "densityMi": 1359,
    "areaMi": 108.888,
    "lng": -81.1965,
    "lat": 32.018,
    "population": 147942,
    "pop2025": 147942,
    "pop2024": 147845,
    "pop2020": 147456,
    "pop2010": 137424,
    "type": "City",
    "rank": 189
  },
  {
    "city": "Waco",
    "state": "Texas",
    "slug": "texas/waco",
    "growth": 0.00974,
    "densityMi": 1623,
    "areaMi": 91.005,
    "lng": -97.1898,
    "lat": 31.558,
    "population": 147666,
    "pop2025": 147666,
    "pop2024": 146241,
    "pop2020": 140541,
    "pop2010": 125360,
    "type": "City",
    "rank": 190
  },
  {
    "city": "Visalia",
    "state": "California",
    "slug": "california/visalia",
    "growth": 0.00737,
    "densityMi": 3855,
    "areaMi": 38.171,
    "lng": -119.329,
    "lat": 36.328,
    "population": 147149,
    "pop2025": 147149,
    "pop2024": 146073,
    "pop2020": 141771,
    "pop2010": 124764,
    "type": "City",
    "rank": 191
  },
  {
    "city": "Thornton",
    "state": "Colorado",
    "slug": "colorado/thornton",
    "growth": 0.00625,
    "densityMi": 4020,
    "areaMi": 36.504,
    "lng": -104.941,
    "lat": 39.9204,
    "population": 146746,
    "pop2025": 146746,
    "pop2024": 145834,
    "pop2020": 142185,
    "pop2010": 119544,
    "type": "City",
    "rank": 192
  },
  {
    "city": "Columbia",
    "state": "South Carolina",
    "slug": "south-carolina/columbia",
    "growth": 0.01435,
    "densityMi": 1060,
    "areaMi": 138.264,
    "lng": -80.9061,
    "lat": 34.0405,
    "population": 146563,
    "pop2025": 146563,
    "pop2024": 144489,
    "pop2020": 136195,
    "pop2010": 130909,
    "type": "City",
    "rank": 193
  },
  {
    "city": "Escondido",
    "state": "California",
    "slug": "california/escondido",
    "growth": -0.00655,
    "densityMi": 3914,
    "areaMi": 37.348,
    "lng": -117.074,
    "lat": 33.1331,
    "population": 146194,
    "pop2025": 146194,
    "pop2024": 147158,
    "pop2020": 151014,
    "pop2010": 144433,
    "type": "City",
    "rank": 194
  },
  {
    "city": "Palm Bay",
    "state": "Florida",
    "slug": "florida/palm-bay",
    "growth": 0.03649,
    "densityMi": 1682,
    "areaMi": 86.679,
    "lng": -80.6583,
    "lat": 27.9649,
    "population": 145834,
    "pop2025": 145834,
    "pop2024": 140700,
    "pop2020": 120163,
    "pop2010": 104143,
    "type": "City",
    "rank": 195
  },
  {
    "city": "Mesquite",
    "state": "Texas",
    "slug": "texas/mesquite",
    "growth": -0.00525,
    "densityMi": 2969,
    "areaMi": 49.102,
    "lng": -96.5842,
    "lat": 32.7595,
    "population": 145777,
    "pop2025": 145777,
    "pop2024": 146547,
    "pop2020": 149627,
    "pop2010": 140029,
    "type": "City",
    "rank": 196
  },
  {
    "city": "Meridian",
    "state": "Idaho",
    "slug": "idaho/meridian",
    "growth": 0.03659,
    "densityMi": 3935,
    "areaMi": 36.859,
    "lng": -116.401,
    "lat": 43.6115,
    "population": 145039,
    "pop2025": 145039,
    "pop2024": 139920,
    "pop2020": 119443,
    "pop2010": 77429,
    "type": "City",
    "rank": 197
  },
  {
    "city": "Syracuse",
    "state": "New York",
    "slug": "new-york/syracuse",
    "growth": -0.00268,
    "densityMi": 5778,
    "areaMi": 25.059,
    "lng": -76.1436,
    "lat": 43.041,
    "population": 144782,
    "pop2025": 144782,
    "pop2024": 145171,
    "pop2020": 146726,
    "pop2010": 145116,
    "type": "City",
    "rank": 198
  },
  {
    "city": "Rockford",
    "state": "Illinois",
    "slug": "illinois/rockford",
    "growth": -0.00585,
    "densityMi": 2219,
    "areaMi": 65.084,
    "lng": -89.0646,
    "lat": 42.2588,
    "population": 144420,
    "pop2025": 144420,
    "pop2024": 145270,
    "pop2020": 148670,
    "pop2010": 153173,
    "type": "City",
    "rank": 199
  },
  {
    "city": "Pasadena",
    "state": "Texas",
    "slug": "texas/pasadena",
    "growth": -0.01068,
    "densityMi": 3287,
    "areaMi": 43.69,
    "lng": -95.1511,
    "lat": 29.655,
    "population": 143614,
    "pop2025": 143614,
    "pop2024": 145165,
    "pop2020": 151368,
    "pop2010": 149603,
    "type": "City",
    "rank": 200
  },
  {
    "city": "Midland",
    "state": "Texas",
    "slug": "texas/midland",
    "growth": 0.01309,
    "densityMi": 1870,
    "areaMi": 75.982,
    "lng": -102.113,
    "lat": 32.0246,
    "population": 142068,
    "pop2025": 142068,
    "pop2024": 140232,
    "pop2020": 132890,
    "pop2010": 111272,
    "type": "City",
    "rank": 201
  },
  {
    "city": "Pomona",
    "state": "California",
    "slug": "california/pomona",
    "growth": -0.01272,
    "densityMi": 6172,
    "areaMi": 22.984,
    "lng": -117.761,
    "lat": 34.0585,
    "population": 141847,
    "pop2025": 141847,
    "pop2024": 143674,
    "pop2020": 150984,
    "pop2010": 149293,
    "type": "City",
    "rank": 202
  },
  {
    "city": "Victorville",
    "state": "California",
    "slug": "california/victorville",
    "growth": 0.01005,
    "densityMi": 1922,
    "areaMi": 73.71,
    "lng": -117.354,
    "lat": 34.5277,
    "population": 141689,
    "pop2025": 141689,
    "pop2024": 140279,
    "pop2020": 134638,
    "pop2010": 116306,
    "type": "City",
    "rank": 203
  },
  {
    "city": "Miramar",
    "state": "Florida",
    "slug": "florida/miramar",
    "growth": 0.00908,
    "densityMi": 4882,
    "areaMi": 28.853,
    "lng": -80.3386,
    "lat": 25.9725,
    "population": 140854,
    "pop2025": 140854,
    "pop2024": 139586,
    "pop2020": 134516,
    "pop2010": 122301,
    "type": "City",
    "rank": 204
  },
  {
    "city": "Metairie",
    "state": "Louisiana",
    "slug": "louisiana/metairie",
    "growth": 0.00093,
    "densityMi": 6064,
    "areaMi": 23.159,
    "lng": -90.1778,
    "lat": 29.9978,
    "population": 140437,
    "pop2025": 140437,
    "pop2024": 140307,
    "pop2020": 138511,
    "pop2010": 138481,
    "type": "CDP",
    "rank": 205
  },
  {
    "city": "New Haven",
    "state": "Connecticut",
    "slug": "connecticut/new-haven",
    "growth": 0.01352,
    "densityMi": 7439,
    "areaMi": 18.69,
    "lng": -72.9249,
    "lat": 41.3108,
    "population": 139027,
    "pop2025": 139027,
    "pop2024": 137173,
    "pop2020": 129757,
    "pop2010": 129797,
    "type": "City",
    "rank": 206
  },
  {
    "city": "Lewisville",
    "state": "Texas",
    "slug": "texas/lewisville",
    "growth": 0.01749,
    "densityMi": 3402,
    "areaMi": 40.657,
    "lng": -96.9746,
    "lat": 33.0507,
    "population": 138307,
    "pop2025": 138307,
    "pop2024": 135930,
    "pop2020": 126422,
    "pop2010": 95944,
    "type": "City",
    "rank": 207
  },
  {
    "city": "Fargo",
    "state": "North Dakota",
    "slug": "north-dakota/fargo",
    "growth": 0.01771,
    "densityMi": 2715,
    "areaMi": 50.834,
    "lng": -96.8291,
    "lat": 46.8647,
    "population": 137989,
    "pop2025": 137989,
    "pop2024": 135588,
    "pop2020": 125986,
    "pop2010": 106024,
    "type": "City",
    "rank": 208
  },
  {
    "city": "Orange",
    "state": "California",
    "slug": "california/orange",
    "growth": -0.00269,
    "densityMi": 5361,
    "areaMi": 25.667,
    "lng": -117.861,
    "lat": 33.787,
    "population": 137594,
    "pop2025": 137594,
    "pop2024": 137965,
    "pop2020": 139451,
    "pop2010": 137009,
    "type": "City",
    "rank": 209
  },
  {
    "city": "Jackson",
    "state": "Mississippi",
    "slug": "mississippi/jackson",
    "growth": -0.02202,
    "densityMi": 1231,
    "areaMi": 111.685,
    "lng": -90.2129,
    "lat": 32.3158,
    "population": 137517,
    "pop2025": 137517,
    "pop2024": 140613,
    "pop2020": 152997,
    "pop2010": 173703,
    "type": "City",
    "rank": 210
  },
  {
    "city": "Round Rock",
    "state": "Texas",
    "slug": "texas/round-rock",
    "growth": 0.02458,
    "densityMi": 3612,
    "areaMi": 37.918,
    "lng": -97.6601,
    "lat": 30.5268,
    "population": 136977,
    "pop2025": 136977,
    "pop2024": 133691,
    "pop2020": 120549,
    "pop2010": 100774,
    "type": "City",
    "rank": 211
  },
  {
    "city": "Hampton",
    "state": "Virginia",
    "slug": "virginia/hampton",
    "growth": -0.00045,
    "densityMi": 2662,
    "areaMi": 51.461,
    "lng": -76.2973,
    "lat": 37.048,
    "population": 136976,
    "pop2025": 136976,
    "pop2024": 137037,
    "pop2020": 137280,
    "pop2010": 137418,
    "type": "City",
    "rank": 212
  },
  {
    "city": "Stamford",
    "state": "Connecticut",
    "slug": "connecticut/stamford",
    "growth": 0.00187,
    "densityMi": 3634,
    "areaMi": 37.628,
    "lng": -73.5461,
    "lat": 41.0796,
    "population": 136735,
    "pop2025": 136735,
    "pop2024": 136480,
    "pop2020": 135462,
    "pop2010": 122783,
    "type": "City",
    "rank": 213
  },
  {
    "city": "Fullerton",
    "state": "California",
    "slug": "california/fullerton",
    "growth": -0.00971,
    "densityMi": 6092,
    "areaMi": 22.42,
    "lng": -117.928,
    "lat": 33.8857,
    "population": 136572,
    "pop2025": 136572,
    "pop2024": 137911,
    "pop2020": 143267,
    "pop2010": 135251,
    "type": "City",
    "rank": 214
  },
  {
    "city": "Coral Springs",
    "state": "Florida",
    "slug": "florida/coral-springs",
    "growth": 0.00182,
    "densityMi": 5922,
    "areaMi": 22.864,
    "lng": -80.2593,
    "lat": 26.2707,
    "population": 135398,
    "pop2025": 135398,
    "pop2024": 135152,
    "pop2020": 134168,
    "pop2010": 122891,
    "type": "City",
    "rank": 215
  },
  {
    "city": "Elizabeth",
    "state": "New Jersey",
    "slug": "new-jersey/elizabeth",
    "growth": -0.00209,
    "densityMi": 10980,
    "areaMi": 12.319,
    "lng": -74.1935,
    "lat": 40.6664,
    "population": 135263,
    "pop2025": 135263,
    "pop2024": 135546,
    "pop2020": 136677,
    "pop2010": 125260,
    "type": "City",
    "rank": 216
  },
  {
    "city": "Warren",
    "state": "Michigan",
    "slug": "michigan/warren",
    "growth": -0.00605,
    "densityMi": 3927,
    "areaMi": 34.377,
    "lng": -83.025,
    "lat": 42.4929,
    "population": 135010,
    "pop2025": 135010,
    "pop2024": 135832,
    "pop2020": 139122,
    "pop2010": 134083,
    "type": "City",
    "rank": 217
  },
  {
    "city": "Cedar Rapids",
    "state": "Iowa",
    "slug": "iowa/cedar-rapids",
    "growth": -0.00443,
    "densityMi": 1817,
    "areaMi": 74.162,
    "lng": -91.6789,
    "lat": 41.9659,
    "population": 134758,
    "pop2025": 134758,
    "pop2024": 135358,
    "pop2020": 137758,
    "pop2010": 126889,
    "type": "City",
    "rank": 218
  },
  {
    "city": "Torrance",
    "state": "California",
    "slug": "california/torrance",
    "growth": -0.01759,
    "densityMi": 6552,
    "areaMi": 20.516,
    "lng": -118.357,
    "lat": 33.8305,
    "population": 134412,
    "pop2025": 134412,
    "pop2024": 136818,
    "pop2020": 146442,
    "pop2010": 145315,
    "type": "City",
    "rank": 219
  },
  {
    "city": "Dayton",
    "state": "Ohio",
    "slug": "ohio/dayton",
    "growth": -0.0049,
    "densityMi": 2404,
    "areaMi": 55.812,
    "lng": -84.1996,
    "lat": 39.7847,
    "population": 134189,
    "pop2025": 134189,
    "pop2024": 134850,
    "pop2020": 137496,
    "pop2010": 142295,
    "type": "City",
    "rank": 220
  },
  {
    "city": "Lehigh Acres",
    "state": "Florida",
    "slug": "florida/lehigh-acres",
    "growth": 0.02401,
    "densityMi": 1444,
    "areaMi": 92.694,
    "lng": -81.6388,
    "lat": 26.6127,
    "population": 133854,
    "pop2025": 133854,
    "pop2024": 130716,
    "pop2020": 124523,
    "pop2010": 86784,
    "type": "CDP",
    "rank": 221
  },
  {
    "city": "Sterling Heights",
    "state": "Michigan",
    "slug": "michigan/sterling-heights",
    "growth": -0.00189,
    "densityMi": 3644,
    "areaMi": 36.447,
    "lng": -83.0303,
    "lat": 42.5812,
    "population": 132804,
    "pop2025": 132804,
    "pop2024": 133055,
    "pop2020": 134059,
    "pop2010": 129709,
    "type": "City",
    "rank": 222
  },
  {
    "city": "Santa Clara",
    "state": "California",
    "slug": "california/santa-clara",
    "growth": 0.00626,
    "densityMi": 7261,
    "areaMi": 18.277,
    "lng": -121.968,
    "lat": 37.3646,
    "population": 132711,
    "pop2025": 132711,
    "pop2024": 131886,
    "pop2020": 128588,
    "pop2010": 116857,
    "type": "City",
    "rank": 223
  },
  {
    "city": "Carrollton",
    "state": "Texas",
    "slug": "texas/carrollton",
    "growth": -0.00159,
    "densityMi": 3615,
    "areaMi": 36.654,
    "lng": -96.8999,
    "lat": 32.9894,
    "population": 132495,
    "pop2025": 132495,
    "pop2024": 132706,
    "pop2020": 133552,
    "pop2010": 119567,
    "type": "City",
    "rank": 224
  },
  {
    "city": "Abilene",
    "state": "Texas",
    "slug": "texas/abilene",
    "growth": 0.00928,
    "densityMi": 1232,
    "areaMi": 106.669,
    "lng": -99.7381,
    "lat": 32.4545,
    "population": 131460,
    "pop2025": 131460,
    "pop2024": 130251,
    "pop2020": 125417,
    "pop2010": 117806,
    "type": "City",
    "rank": 225
  },
  {
    "city": "Columbia",
    "state": "Missouri",
    "slug": "missouri/columbia",
    "growth": 0.00773,
    "densityMi": 1951,
    "areaMi": 67.31,
    "lng": -92.3264,
    "lat": 38.9473,
    "population": 131345,
    "pop2025": 131345,
    "pop2024": 130337,
    "pop2020": 126307,
    "pop2010": 109430,
    "type": "City",
    "rank": 226
  },
  {
    "city": "Norman",
    "state": "Oklahoma",
    "slug": "oklahoma/norman",
    "growth": 0.00481,
    "densityMi": 735,
    "areaMi": 178.647,
    "lng": -97.3453,
    "lat": 35.2406,
    "population": 131302,
    "pop2025": 131302,
    "pop2024": 130674,
    "pop2020": 128161,
    "pop2010": 111372,
    "type": "City",
    "rank": 227
  },
  {
    "city": "Kent",
    "state": "Washington",
    "slug": "washington/kent",
    "growth": -0.00809,
    "densityMi": 3879,
    "areaMi": 33.833,
    "lng": -122.213,
    "lat": 47.388,
    "population": 131235,
    "pop2025": 131235,
    "pop2024": 132306,
    "pop2020": 136592,
    "pop2010": 119071,
    "type": "City",
    "rank": 228
  },
  {
    "city": "West Valley City",
    "state": "Utah",
    "slug": "utah/west-valley-city",
    "growth": -0.01383,
    "densityMi": 3651,
    "areaMi": 35.827,
    "lng": -112.012,
    "lat": 40.6885,
    "population": 130801,
    "pop2025": 130801,
    "pop2024": 132635,
    "pop2020": 139973,
    "pop2010": 129654,
    "type": "City",
    "rank": 229
  },
  {
    "city": "Pasadena",
    "state": "California",
    "slug": "california/pasadena",
    "growth": -0.01239,
    "densityMi": 5675,
    "areaMi": 22.96,
    "lng": -118.138,
    "lat": 34.1606,
    "population": 130292,
    "pop2025": 130292,
    "pop2024": 131926,
    "pop2020": 138462,
    "pop2010": 137540,
    "type": "City",
    "rank": 230
  },
  {
    "city": "Athens",
    "state": "Georgia",
    "slug": "georgia/athens",
    "growth": 0.00357,
    "densityMi": 1113,
    "areaMi": 116.437,
    "lng": -83.3701,
    "lat": 33.9496,
    "population": 129550,
    "pop2025": 129550,
    "pop2024": 129089,
    "pop2020": 127245,
    "pop2010": 116089,
    "type": "Township",
    "rank": 231
  },
  {
    "city": "Clovis",
    "state": "California",
    "slug": "california/clovis",
    "growth": 0.01321,
    "densityMi": 4998,
    "areaMi": 25.852,
    "lng": -119.685,
    "lat": 36.829,
    "population": 129196,
    "pop2025": 129196,
    "pop2024": 127511,
    "pop2020": 120770,
    "pop2010": 96360,
    "type": "City",
    "rank": 232
  },
  {
    "city": "Pearland",
    "state": "Texas",
    "slug": "texas/pearland",
    "growth": 0.00452,
    "densityMi": 2645,
    "areaMi": 48.724,
    "lng": -95.323,
    "lat": 29.5557,
    "population": 128896,
    "pop2025": 128896,
    "pop2024": 128316,
    "pop2020": 125996,
    "pop2010": 94108,
    "type": "City",
    "rank": 233
  },
  {
    "city": "West Palm Beach",
    "state": "Florida",
    "slug": "florida/west-palm-beach",
    "growth": 0.01748,
    "densityMi": 2386,
    "areaMi": 53.872,
    "lng": -80.127,
    "lat": 26.7451,
    "population": 128545,
    "pop2025": 128545,
    "pop2024": 126337,
    "pop2020": 117507,
    "pop2010": 100819,
    "type": "City",
    "rank": 234
  },
  {
    "city": "College Station",
    "state": "Texas",
    "slug": "texas/college-station",
    "growth": 0.01164,
    "densityMi": 2505,
    "areaMi": 51.16,
    "lng": -96.2964,
    "lat": 30.5852,
    "population": 128139,
    "pop2025": 128139,
    "pop2024": 126665,
    "pop2020": 120771,
    "pop2010": 94692,
    "type": "City",
    "rank": 235
  },
  {
    "city": "Lakeland",
    "state": "Florida",
    "slug": "florida/lakeland",
    "growth": 0.02233,
    "densityMi": 1921,
    "areaMi": 66.561,
    "lng": -81.9548,
    "lat": 28.0555,
    "population": 127848,
    "pop2025": 127848,
    "pop2024": 125056,
    "pop2020": 113888,
    "pop2010": 97660,
    "type": "City",
    "rank": 236
  },
  {
    "city": "Wilmington",
    "state": "North Carolina",
    "slug": "north-carolina/wilmington",
    "growth": 0.01847,
    "densityMi": 2476,
    "areaMi": 51.414,
    "lng": -77.8858,
    "lat": 34.2092,
    "population": 127316,
    "pop2025": 127316,
    "pop2024": 125007,
    "pop2020": 115770,
    "pop2010": 106769,
    "type": "City",
    "rank": 237
  },
  {
    "city": "North Charleston",
    "state": "South Carolina",
    "slug": "south-carolina/north-charleston",
    "growth": 0.01598,
    "densityMi": 1615,
    "areaMi": 77.632,
    "lng": -80.065,
    "lat": 32.9179,
    "population": 125414,
    "pop2025": 125414,
    "pop2024": 123441,
    "pop2020": 115551,
    "pop2010": 97967,
    "type": "City",
    "rank": 238
  },
  {
    "city": "Topeka",
    "state": "Kansas",
    "slug": "kansas/topeka",
    "growth": -0.00256,
    "densityMi": 2025,
    "areaMi": 61.661,
    "lng": -95.6948,
    "lat": 39.0347,
    "population": 124833,
    "pop2025": 124833,
    "pop2024": 125154,
    "pop2020": 126437,
    "pop2010": 127918,
    "type": "City",
    "rank": 239
  },
  {
    "city": "The Woodlands",
    "state": "Texas",
    "slug": "texas/the-woodlands",
    "growth": 0.01671,
    "densityMi": 2878,
    "areaMi": 43.273,
    "lng": -95.5098,
    "lat": 30.1726,
    "population": 124541,
    "pop2025": 124541,
    "pop2024": 122494,
    "pop2020": 114532,
    "pop2010": 93847,
    "type": "CDP",
    "rank": 240
  },
  {
    "city": "Allentown",
    "state": "Pennsylvania",
    "slug": "pennsylvania/allentown",
    "growth": -0.00226,
    "densityMi": 7078,
    "areaMi": 17.564,
    "lng": -75.4784,
    "lat": 40.5936,
    "population": 124315,
    "pop2025": 124315,
    "pop2024": 124597,
    "pop2020": 125727,
    "pop2010": 118040,
    "type": "City",
    "rank": 241
  },
  {
    "city": "Simi Valley",
    "state": "California",
    "slug": "california/simi-valley",
    "growth": -0.00329,
    "densityMi": 2992,
    "areaMi": 41.542,
    "lng": -118.748,
    "lat": 34.2669,
    "population": 124293,
    "pop2025": 124293,
    "pop2024": 124703,
    "pop2020": 126343,
    "pop2010": 124424,
    "type": "City",
    "rank": 242
  },
  {
    "city": "New Braunfels",
    "state": "Texas",
    "slug": "texas/new-braunfels",
    "growth": 0.05484,
    "densityMi": 2750,
    "areaMi": 45.035,
    "lng": -98.1151,
    "lat": 29.6993,
    "population": 123834,
    "pop2025": 123834,
    "pop2024": 117396,
    "pop2020": 91643,
    "pop2010": 58061,
    "type": "City",
    "rank": 243
  },
  {
    "city": "Billings",
    "state": "Montana",
    "slug": "montana/billings",
    "growth": 0.00994,
    "densityMi": 2705,
    "areaMi": 45.572,
    "lng": -108.552,
    "lat": 45.7885,
    "population": 123290,
    "pop2025": 123290,
    "pop2024": 122077,
    "pop2020": 117224,
    "pop2010": 104524,
    "type": "City",
    "rank": 244
  },
  {
    "city": "Rochester",
    "state": "Minnesota",
    "slug": "minnesota/rochester",
    "growth": 0.00227,
    "densityMi": 2177,
    "areaMi": 56.486,
    "lng": -92.4786,
    "lat": 44.0143,
    "population": 122971,
    "pop2025": 122971,
    "pop2024": 122692,
    "pop2020": 121575,
    "pop2010": 107050,
    "type": "City",
    "rank": 245
  },
  {
    "city": "Nampa",
    "state": "Idaho",
    "slug": "idaho/nampa",
    "growth": 0.03642,
    "densityMi": 3535,
    "areaMi": 34.773,
    "lng": -116.566,
    "lat": 43.5855,
    "population": 122906,
    "pop2025": 122906,
    "pop2024": 118587,
    "pop2020": 101310,
    "pop2010": 82015,
    "type": "City",
    "rank": 246
  },
  {
    "city": "Broken Arrow",
    "state": "Oklahoma",
    "slug": "oklahoma/broken-arrow",
    "growth": 0.01451,
    "densityMi": 1949,
    "areaMi": 62.961,
    "lng": -95.781,
    "lat": 36.0365,
    "population": 122704,
    "pop2025": 122704,
    "pop2024": 120949,
    "pop2020": 113928,
    "pop2010": 99085,
    "type": "City",
    "rank": 247
  },
  {
    "city": "Lafayette",
    "state": "Louisiana",
    "slug": "louisiana/lafayette",
    "growth": 0.00003,
    "densityMi": 2169,
    "areaMi": 56.015,
    "lng": -92.0281,
    "lat": 30.2056,
    "population": 121475,
    "pop2025": 121475,
    "pop2024": 121471,
    "pop2020": 121455,
    "pop2010": 121896,
    "type": "City",
    "rank": 248
  },
  {
    "city": "Spring Hill",
    "state": "Florida",
    "slug": "florida/spring-hill",
    "growth": 0.01268,
    "densityMi": 2027,
    "areaMi": 59.918,
    "lng": -82.5297,
    "lat": 28.4792,
    "population": 121447,
    "pop2025": 121447,
    "pop2024": 119926,
    "pop2020": 113742,
    "pop2010": 98621,
    "type": "CDP",
    "rank": 249
  },
  {
    "city": "Fairfield",
    "state": "California",
    "slug": "california/fairfield",
    "growth": 0.00258,
    "densityMi": 2919,
    "areaMi": 41.586,
    "lng": -122.032,
    "lat": 38.2621,
    "population": 121391,
    "pop2025": 121391,
    "pop2024": 121079,
    "pop2020": 119833,
    "pop2010": 105652,
    "type": "City",
    "rank": 250
  },
  {
    "city": "Thousand Oaks",
    "state": "California",
    "slug": "california/thousand-oaks",
    "growth": -0.00915,
    "densityMi": 2194,
    "areaMi": 55.257,
    "lng": -118.874,
    "lat": 34.1933,
    "population": 121222,
    "pop2025": 121222,
    "pop2024": 122342,
    "pop2020": 126824,
    "pop2010": 126688,
    "type": "City",
    "rank": 251
  },
  {
    "city": "Goodyear",
    "state": "Arizona",
    "slug": "arizona/goodyear",
    "growth": 0.03998,
    "densityMi": 633,
    "areaMi": 191.305,
    "lng": -112.366,
    "lat": 33.254,
    "population": 121116,
    "pop2025": 121116,
    "pop2024": 116460,
    "pop2020": 97838,
    "pop2010": 65495,
    "type": "City",
    "rank": 252
  },
  {
    "city": "Vallejo",
    "state": "California",
    "slug": "california/vallejo",
    "growth": -0.00845,
    "densityMi": 3967,
    "areaMi": 30.435,
    "lng": -122.262,
    "lat": 38.1069,
    "population": 120749,
    "pop2025": 120749,
    "pop2024": 121778,
    "pop2020": 125894,
    "pop2010": 116118,
    "type": "City",
    "rank": 253
  },
  {
    "city": "Concord",
    "state": "California",
    "slug": "california/concord",
    "growth": -0.00816,
    "densityMi": 3937,
    "areaMi": 30.568,
    "lng": -122.002,
    "lat": 37.9722,
    "population": 120334,
    "pop2025": 120334,
    "pop2024": 121324,
    "pop2020": 125286,
    "pop2010": 122440,
    "type": "City",
    "rank": 254
  },
  {
    "city": "Menifee",
    "state": "California",
    "slug": "california/menifee",
    "growth": 0.02912,
    "densityMi": 2588,
    "areaMi": 46.464,
    "lng": -117.184,
    "lat": 33.6899,
    "population": 120236,
    "pop2025": 120236,
    "pop2024": 116834,
    "pop2020": 103228,
    "pop2010": 78115,
    "type": "City",
    "rank": 255
  },
  {
    "city": "Independence",
    "state": "Missouri",
    "slug": "missouri/independence",
    "growth": -0.00548,
    "densityMi": 1534,
    "areaMi": 77.989,
    "lng": -94.3521,
    "lat": 39.0855,
    "population": 119604,
    "pop2025": 119604,
    "pop2024": 120263,
    "pop2020": 122899,
    "pop2010": 116904,
    "type": "City",
    "rank": 256
  },
  {
    "city": "Hartford",
    "state": "Connecticut",
    "slug": "connecticut/hartford",
    "growth": -0.00036,
    "densityMi": 6881,
    "areaMi": 17.379,
    "lng": -72.6816,
    "lat": 41.7659,
    "population": 119583,
    "pop2025": 119583,
    "pop2024": 119626,
    "pop2020": 119798,
    "pop2010": 125349,
    "type": "City",
    "rank": 257
  },
  {
    "city": "Conroe",
    "state": "Texas",
    "slug": "texas/conroe",
    "growth": 0.04972,
    "densityMi": 1578,
    "areaMi": 75.796,
    "lng": -95.4846,
    "lat": 30.3287,
    "population": 119576,
    "pop2025": 119576,
    "pop2024": 113912,
    "pop2020": 91255,
    "pop2010": 65712,
    "type": "City",
    "rank": 258
  },
  {
    "city": "Arvada",
    "state": "Colorado",
    "slug": "colorado/arvada",
    "growth": -0.0081,
    "densityMi": 3065,
    "areaMi": 38.974,
    "lng": -105.15,
    "lat": 39.8337,
    "population": 119461,
    "pop2025": 119461,
    "pop2024": 120437,
    "pop2020": 124343,
    "pop2010": 106943,
    "type": "City",
    "rank": 259
  },
  {
    "city": "Buckeye",
    "state": "Arizona",
    "slug": "arizona/buckeye",
    "growth": 0.04431,
    "densityMi": 301,
    "areaMi": 394.829,
    "lng": -112.642,
    "lat": 33.4316,
    "population": 119007,
    "pop2025": 119007,
    "pop2024": 113958,
    "pop2020": 93761,
    "pop2010": 51332,
    "type": "City",
    "rank": 260
  },
  {
    "city": "High Point",
    "state": "North Carolina",
    "slug": "north-carolina/high-point",
    "growth": 0.00589,
    "densityMi": 2064,
    "areaMi": 57.327,
    "lng": -79.9927,
    "lat": 35.9908,
    "population": 118312,
    "pop2025": 118312,
    "pop2024": 117619,
    "pop2020": 114846,
    "pop2010": 104702,
    "type": "City",
    "rank": 261
  },
  {
    "city": "Antioch",
    "state": "California",
    "slug": "california/antioch",
    "growth": 0.00486,
    "densityMi": 4053,
    "areaMi": 29.171,
    "lng": -121.796,
    "lat": 37.9783,
    "population": 118240,
    "pop2025": 118240,
    "pop2024": 117668,
    "pop2020": 115379,
    "pop2010": 103062,
    "type": "City",
    "rank": 262
  },
  {
    "city": "Cambridge",
    "state": "Massachusetts",
    "slug": "massachusetts/cambridge",
    "growth": -0.00001,
    "densityMi": 18479,
    "areaMi": 6.397,
    "lng": -71.1187,
    "lat": 42.376,
    "population": 118211,
    "pop2025": 118211,
    "pop2024": 118212,
    "pop2020": 118218,
    "pop2010": 105017,
    "type": "City",
    "rank": 263
  },
  {
    "city": "Brandon",
    "state": "Florida",
    "slug": "florida/brandon",
    "growth": 0.00816,
    "densityMi": 3555,
    "areaMi": 33.134,
    "lng": -82.2993,
    "lat": 27.936,
    "population": 117783,
    "pop2025": 117783,
    "pop2024": 116830,
    "pop2020": 115909,
    "pop2010": 103483,
    "type": "CDP",
    "rank": 264
  },
  {
    "city": "League City",
    "state": "Texas",
    "slug": "texas/league-city",
    "growth": 0.00474,
    "densityMi": 2286,
    "areaMi": 51.362,
    "lng": -95.1091,
    "lat": 29.4901,
    "population": 117428,
    "pop2025": 117428,
    "pop2024": 116874,
    "pop2020": 114657,
    "pop2010": 84099,
    "type": "City",
    "rank": 265
  },
  {
    "city": "Las Cruces",
    "state": "New Mexico",
    "slug": "new-mexico/las-cruces",
    "growth": 0.00918,
    "densityMi": 1521,
    "areaMi": 76.933,
    "lng": -106.79,
    "lat": 32.3264,
    "population": 117021,
    "pop2025": 117021,
    "pop2024": 115956,
    "pop2020": 111698,
    "pop2010": 98278,
    "type": "City",
    "rank": 266
  },
  {
    "city": "Ann Arbor",
    "state": "Michigan",
    "slug": "michigan/ann-arbor",
    "growth": -0.01195,
    "densityMi": 4114,
    "areaMi": 28.33,
    "lng": -83.7309,
    "lat": 42.2761,
    "population": 116561,
    "pop2025": 116561,
    "pop2024": 117971,
    "pop2020": 123611,
    "pop2010": 114197,
    "type": "City",
    "rank": 267
  },
  {
    "city": "Clearwater",
    "state": "Florida",
    "slug": "florida/clearwater",
    "growth": -0.00138,
    "densityMi": 4452,
    "areaMi": 26.175,
    "lng": -82.7713,
    "lat": 27.9794,
    "population": 116528,
    "pop2025": 116528,
    "pop2024": 116689,
    "pop2020": 117333,
    "pop2010": 109005,
    "type": "City",
    "rank": 268
  },
  {
    "city": "Odessa",
    "state": "Texas",
    "slug": "texas/odessa",
    "growth": 0.00234,
    "densityMi": 2241,
    "areaMi": 51.889,
    "lng": -102.345,
    "lat": 31.8805,
    "population": 116287,
    "pop2025": 116287,
    "pop2024": 116015,
    "pop2020": 114926,
    "pop2010": 99814,
    "type": "City",
    "rank": 269
  },
  {
    "city": "Richardson",
    "state": "Texas",
    "slug": "texas/richardson",
    "growth": -0.00532,
    "densityMi": 4068,
    "areaMi": 28.562,
    "lng": -96.7081,
    "lat": 32.9723,
    "population": 116192,
    "pop2025": 116192,
    "pop2024": 116813,
    "pop2020": 119299,
    "pop2010": 99582,
    "type": "City",
    "rank": 270
  },
  {
    "city": "Tuscaloosa",
    "state": "Alabama",
    "slug": "alabama/tuscaloosa",
    "growth": 0.02088,
    "densityMi": 1868,
    "areaMi": 62.15,
    "lng": -87.5283,
    "lat": 33.2344,
    "population": 116085,
    "pop2025": 116085,
    "pop2024": 113711,
    "pop2020": 104217,
    "pop2010": 90409,
    "type": "City",
    "rank": 271
  },
  {
    "city": "Waterbury",
    "state": "Connecticut",
    "slug": "connecticut/waterbury",
    "growth": 0.00321,
    "densityMi": 4053,
    "areaMi": 28.557,
    "lng": -73.0367,
    "lat": 41.5585,
    "population": 115730,
    "pop2025": 115730,
    "pop2024": 115360,
    "pop2020": 113880,
    "pop2010": 110347,
    "type": "City",
    "rank": 272
  },
  {
    "city": "Allen",
    "state": "Texas",
    "slug": "texas/allen",
    "growth": 0.01781,
    "densityMi": 4381,
    "areaMi": 26.402,
    "lng": -96.673,
    "lat": 33.1097,
    "population": 115668,
    "pop2025": 115668,
    "pop2024": 113644,
    "pop2020": 105548,
    "pop2010": 84923,
    "type": "City",
    "rank": 273
  },
  {
    "city": "Berkeley",
    "state": "California",
    "slug": "california/berkeley",
    "growth": -0.01491,
    "densityMi": 11068,
    "areaMi": 10.432,
    "lng": -122.299,
    "lat": 37.8657,
    "population": 115466,
    "pop2025": 115466,
    "pop2024": 117214,
    "pop2020": 124205,
    "pop2010": 112938,
    "type": "City",
    "rank": 274
  },
  {
    "city": "Manchester",
    "state": "New Hampshire",
    "slug": "new-hampshire/manchester",
    "growth": -0.0001,
    "densityMi": 3491,
    "areaMi": 33.069,
    "lng": -71.4441,
    "lat": 42.9849,
    "population": 115451,
    "pop2025": 115451,
    "pop2024": 115462,
    "pop2020": 115508,
    "pop2010": 109608,
    "type": "City",
    "rank": 275
  },
  {
    "city": "East Los Angeles",
    "state": "California",
    "slug": "california/east-los-angeles",
    "growth": -0.00667,
    "densityMi": 15417,
    "areaMi": 7.453,
    "lng": -118.169,
    "lat": 34.0315,
    "population": 114904,
    "pop2025": 114904,
    "pop2024": 115676,
    "pop2020": 120504,
    "pop2010": 126496,
    "type": "CDP",
    "rank": 276
  },
  {
    "city": "Greeley",
    "state": "Colorado",
    "slug": "colorado/greeley",
    "growth": 0.00978,
    "densityMi": 2323,
    "areaMi": 49.434,
    "lng": -104.771,
    "lat": 40.414,
    "population": 114833,
    "pop2025": 114833,
    "pop2024": 113721,
    "pop2020": 109272,
    "pop2010": 93362,
    "type": "City",
    "rank": 277
  },
  {
    "city": "Rio Rancho",
    "state": "New Mexico",
    "slug": "new-mexico/rio-rancho",
    "growth": 0.01841,
    "densityMi": 1111,
    "areaMi": 103.361,
    "lng": -106.699,
    "lat": 35.2851,
    "population": 114811,
    "pop2025": 114811,
    "pop2024": 112735,
    "pop2020": 104433,
    "pop2010": 87982,
    "type": "City",
    "rank": 278
  },
  {
    "city": "Pompano Beach",
    "state": "Florida",
    "slug": "florida/pompano-beach",
    "growth": 0.00485,
    "densityMi": 4767,
    "areaMi": 24.066,
    "lng": -80.1339,
    "lat": 26.2416,
    "population": 114727,
    "pop2025": 114727,
    "pop2024": 114173,
    "pop2020": 111957,
    "pop2010": 99979,
    "type": "City",
    "rank": 279
  },
  {
    "city": "Georgetown",
    "state": "Texas",
    "slug": "texas/georgetown",
    "growth": 0.08709,
    "densityMi": 1972,
    "areaMi": 58.146,
    "lng": -97.6987,
    "lat": 30.6681,
    "population": 114687,
    "pop2025": 114687,
    "pop2024": 105499,
    "pop2020": 68749,
    "pop2010": 48019,
    "type": "City",
    "rank": 280
  },